SSC ID,Station Name,Country_x,Latitude,Longitude,IOC code,PTWC code,GLOSS ID_x,UHSLC ID,PSMSL ID,SONEL GPS,SONEL TG,Details,Edit,Code,GLOSS ID_y,Country_y,Location,Connection,DCP ID,Last observation  Level,Time in GMT,Delay,TransmitInterval,View
SSC-abas,Abashiri,Japan,44.02,144.28,abas,abas,327.0,347,1104,797,2107,[details],[edit],abas,327,Japan,Abashiri,SWJP40,ABASHIRI,2.12,08:39,20',10',[open]
SSC-abed,Aberdeen,United Kingdom,57.14,-2.08,abed,,,,"21, 361",617,"2185, 2735",[details],[edit],abed,,UK,Aberdeen,ftp,,0.53,08:15,44',15',[open]
SSC-abur,Aburatsu,Japan,31.35,131.25,abur,abur,82.0,354,814,806,2209,[details],[edit],abur,82,Japan,Aburatsu,SWJP40,ABURATSU,2.94,08:39,20',10',[open]
SSC-acaj,Acajutla,El Salvador,13.57,-89.84,acaj,acaj,182.0,82,"1011, 1302",,2859,[details],[edit],acaj,182,El Salvador,Acajutla,SEMS40,50313520,4.22,08:46,13',5',[open]
SSC-acnj,Atlantic City,United States,39.36,-74.42,"acnj, acnj2",acnj,220.0,264,180,2923,2876,[details],[edit],acnj,220,USA,Atlantic City,web,3367B730,0.94,08:50,9',5',[open]
SSC-acnj,Atlantic City,United States,39.36,-74.42,"acnj, acnj2",acnj,220.0,264,180,2923,2876,[details],[edit],acnj2,220,USA,Atlantic City,SXXX03,3367B730,-8.09,08:43,16',5',[open]
SSC-adak,Adak,United States,51.86,-176.63,"adak, adak2",adak,302.0,40,487,2667,2666,[details],[edit],adak,302,USA,Adak,web,3360F60E,0.63,08:52,7',6',[open]
SSC-adak,Adak,United States,51.86,-176.63,"adak, adak2",adak,302.0,40,487,2667,2666,[details],[edit],adak2,302,USA,Adak,SXXX03,3360F60E,-2.64,08:47,12',6',[open]
SSC-aden,Aden,Yemen,12.79,44.97,aden,aden,3.0,172,44,,2790,[details],[edit],aden,3,Yemen,Aden,SXXX33,3686B76A,-9.07,08:27,32',15',[open]
SSC-agal,Agalega,Mauritius,-10.35,56.59,agal,agal,,,,,,[details],[edit],agal,,Mauritius,Agalega,SXXX32,3246B586,7.01,08:46,13',15',[open]
SSC-ajac,Ajaccio,France,41.92,8.76,"ajac, ajac2",ajac,,,1929,"3197, 619",1719,[details],[edit],ajac,,France,Ajaccio,ftp,,0.6,08:48,10',5',[open]
SSC-alak,Alitak,United States,56.9,-154.25,"alak, alak2",alak,,,,,,[details],[edit],alak,,USA,Alitak,web,3363341E,2.32,08:51,8',5',[open]
SSC-alak,Alitak,United States,56.9,-154.25,"alak, alak2",alak,,,,,,[details],[edit],alak2,,USA,Alitak,SXXX03,3363341E,-4.98,08:44,15',5',[open]
SSC-alam,Alameda,United States,37.77,-122.3,"alam, alam2",alam,,,437,3319,3318,[details],[edit],alam,,USA,Alameda,web,3362E08C,2.05,08:49,10',5',[open]
SSC-alam,Alameda,United States,37.77,-122.3,"alam, alam2",alam,,,437,3319,3318,[details],[edit],alam2,,USA,Alameda,SXXX03,3362E08C,-3.91,08:36,23',5',[open]
SSC-albu,Albufeira,Portugal,37.08,8.26,albu,albu,,,,,,[details],[edit],albu,,Portugal,Albufeira,bgan,ALBU,-1.41,08:38,21',1',[open]
SSC-alcu,Alcudia,Spain,39.87,3.12,alcu,,,,2063,,,[details],[edit],alcu,,Spain,Alcudia,ftp,,0.54,08:48,11',4',[open]
SSC-alex,Alexandria,Egypt,31.21,29.92,alex,alex,349.0,807,"2088, 503","2006, 933","2206, 3010",[details],[edit],alex,349,Egypt,Alexandria,SXXX32,2636F22C,,2016-08-11 11:54,406d,15',[open]
SSC-alge,Algeciras,Spain,36.18,-5.4,alge,alge,,,,3373,3464,[details],[edit],alge,,Spain,Algeciras,ftp,,0.3,08:48,11',4',[open]
SSC-alme,Almeria,Spain,36.83,-2.48,alme,,,,"1455, 2056","3461, 624","2193, 2395",[details],[edit],alme,,Spain,Almeria,ftp,,0.33,08:44,15',4',[open]
SSC-alva,Alvarado,Mexico,18.77,-95.77,alva,,,,768,,,[details],[edit],alva,,Mexico,Alvarado,ftp,,5.8,08:22,37',10',[open]
SSC-amal,Charlotte-Amalie,United States,18.33,-64.92,"amal, amal2",amal,,255,1393,"1899, 2664",2663,[details],[edit],amal,,USA,Charlotte-Amalie,web,3364A348,0.69,2017-09-06 17:45,15d,6',[open]
SSC-amal,Charlotte-Amalie,United States,18.33,-64.92,"amal, amal2",amal,,255,1393,"1899, 2664",2663,[details],[edit],amal2,,USA,Charlotte-Amalie,SXXX03,3364A348,-2.5,2017-09-06 17:38,15d,6',[open]
SSC-ambo,Ambon,Indonesia,-3.68,128.18,ambon,ambo,68.0,133,"1815, 347",3216,2821,[details],[edit],ambon,68,Indonesia,Ambon,SZID40,06503AC6,4.76,08:18,41',6',[open]
SSC-anca,Ancona,Italy,43.62,13.51,AN15,,,,"101, 2098",3153,"3151, 3152",[details],[edit],AN15,,Italy,Ancona,web,,0.16,08:53,6',5',[open]
SSC-anch,Anchorage,United States,61.24,-149.89,"anch, anch2",anch,,,1067,1897,2104,[details],[edit],anch,,USA,Anchorage,web,3363B20A,2.98,08:51,8',5',[open]
SSC-anch,Anchorage,United States,61.24,-149.89,"anch, anch2",anch,,,1067,1897,2104,[details],[edit],anch2,,USA,Anchorage,SXXX03,3363B20A,-6.9,08:44,15',5',[open]
SSC-ancu,Ancud,Chile,-41.87,-73.83,"ancu, ancu2",ancu,,,,,,[details],[edit],ancu,,Chile,Ancud,SXCH40,ADC12228,4.62,08:44,15',10',[open]
SSC-ancu,Ancud,Chile,-41.87,-73.83,"ancu, ancu2",ancu,,,,,,[details],[edit],ancu2,,Chile,Ancud,web,,4.42,08:47,11',10',[open]
SSC-ande,Andenes,Norway,69.32,16.15,ande,,322.0,800,425,3573,2263,[details],[edit],ande,322,Norway,Andenes,web,,0.5,10:10,-71',1h,[open]
SSC-anto,Antofagasta,Chile,-23.65,-70.4,"anto, anto2",anto,174.0,80,"510, 511",2608,"2607, 2753",[details],[edit],anto,174,Chile,Antofagasta,SXCH40,ADC0F6BA,4.74,08:48,11',5',[open]
SSC-anto,Antofagasta,Chile,-23.65,-70.4,"anto, anto2",anto,174.0,80,"510, 511",2608,"2607, 2753",[details],[edit],anto2,174,Chile,Antofagasta,web,,4.69,08:47,12',5',[open]
SSC-anzio,Anzio,Italy,41.45,12.63,AZ42,,,,2136,,,[details],[edit],AZ42,,Italy,Anzio,web,,-999,2017-09-16 09:18,5d,5',[open]
SSC-apfl,Apalachicola,United States,29.73,-84.98,"apfl, apfl2",apfl,,760,1193,,,[details],[edit],apfl,,USA,Apalachicola,web,3346C2B4,0.65,08:49,10',5',[open]
SSC-apfl,Apalachicola,United States,29.73,-84.98,"apfl, apfl2",apfl,,760,1193,,,[details],[edit],apfl2,,USA,Apalachicola,SXXX03,3346C2B4,-6.03,08:48,11',5',[open]
SSC-arac,Arecibo,Puerto Rico,18.48,-66.7,"arac, aracS",arec,,735,2213,,,[details],[edit],arac,,Puerto Rico,Arecibo,web,,0.08,08:48,11',6',[open]
SSC-arca,Arcachon Eyrac,France,44.67,-1.16,arca,,,,1918,3191,1724,[details],[edit],arca,,France,Arcachon Eyrac,ftp,,1.99,08:47,11',5',[open]
SSC-aren,Arena Cove,United States,38.91,-123.71,"aren, aren2",aren,,573,2125,3026,3025,[details],[edit],aren,,USA,Arena Cove,web,3368115A,1.54,08:51,8',5',[open]
SSC-aren,Arena Cove,United States,38.91,-123.71,"aren, aren2",aren,,573,2125,3026,3025,[details],[edit],aren2,,USA,Arena Cove,SXXX03,3368115A,-7.81,08:44,15',5',[open]
SSC-aric,Arica,Chile,-18.48,-70.32,"aric, aric2",aric,,83,"1554, 618","2610, 3159",2609,[details],[edit],aric,,Chile,Arica,SXCH40,ADC0D056,3.94,08:47,12',5',[open]
SSC-aric,Arica,Chile,-18.48,-70.32,"aric, aric2",aric,,83,"1554, 618","2610, 3159",2609,[details],[edit],aric2,,Chile,Arica,web,,3.88,08:46,12',5',[open]
SSC-arre,Arrecife,Spain,28.97,-13.53,arre,,,205,"2066, 593",,,[details],[edit],arre,,Spain,Arrecife,ftp,,0.75,08:48,11',4',[open]
SSC-ascen,Ascension,United Kingdom,-7.92,-14.42,ascen,ascn,263.0,291,1831,630,1971,[details],[edit],ascen,263,UK,Ascension,SXXX32,265C94AA,0.02,2017-05-24 10:24,120d,15',[open]
SSC-ashd,Ashdod Port,Israel,31.83,34.64,ashd,,,,"2219, 855",2021,"2180, 3502",[details],[edit],ashd,,Israel,Ashdod Port,ftp,,0.03,2016-11-23 09:51,302d,1',[open]
SSC-ashk,Ashkhara,Oman,21.85,59.57,ashk,ashk,,,,,,[details],[edit],ashk,,Oman,Ashkhara,SXOM33,18E447FC,-999,06:25,3h,6',[open]
SSC-askl,Ashkelon,Israel,31.63,34.49,askl,,,,2220,,,[details],[edit],askl,,Israel,Ashkelon,ftp,,-1.42,2016-11-29 09:24,296d,1',[open]
SSC-asto,Astoria,United States,46.21,-123.77,"asto, asto2",asto,,572,265,"2093, 2690, 2691, 675",2176,[details],[edit],asto,,USA,Astoria,web,3362856A,2.7,08:50,9',5',[open]
SSC-asto,Astoria,United States,46.21,-123.77,"asto, asto2",asto,,572,265,"2093, 2690, 2691, 675",2176,[details],[edit],asto2,,USA,Astoria,SXXX03,3362856A,-5.86,2017-04-04 21:54,169d,5',[open]
SSC-avon,Avonmouth Portbury,United Kingdom,51.5,-2.73,avon,,,,"2011, 257",,,[details],[edit],avon,,UK,Avonmouth Portbury,ftp,,13.49,08:15,44',15',[open]
SSC-bamd,Baltimore,United States,39.27,-76.58,"bamd, bamd2",bamd,,,148,"2704, 3059",2703,[details],[edit],bamd,,USA,Baltimore,web,336577DA,0.72,08:48,11',5',[open]
SSC-bamd,Baltimore,United States,39.27,-76.58,"bamd, bamd2",bamd,,,148,"2704, 3059",2703,[details],[edit],bamd2,,USA,Baltimore,SXXX03,336577DA,-3.8,08:45,14',5',[open]
SSC-bame,Bar Harbor,United States,44.39,-68.21,"bame, bame2",bame,,,525,635,2353,[details],[edit],bame,,USA,Bar Harbor,web,336747B4,0.29,08:48,11',5',[open]
SSC-bame,Bar Harbor,United States,44.39,-68.21,"bame, bame2",bame,,,525,635,2353,[details],[edit],bame2,,USA,Bar Harbor,SXXX03,336747B4,-5.89,08:49,10',5',[open]
SSC-bamf,Bamfield,Canada,48.84,-125.14,bamf,,,,1242,3023,3022,[details],[edit],bamf,,Canada,Bamfield,ftp,,3.45,2017-09-20 20:30,12h,6h,[open]
SSC-bang,Bangor,United Kingdom,54.66,-5.67,bang,,,,1856,,,[details],[edit],bang,,UK,Bangor,ftp,,2.04,08:30,29',15',[open]
SSC-bara,Barahona,Dominican Republic,18.21,-71.09,bara,bara,,,745,3554,3553,[details],[edit],bara,,Dominican Republic,Barahona,SXDR40,04401622,-999,08:50,9',5',[open]
SSC-barb,Barbuda,Antigua and Barbuda,17.59,-61.82,"barb, barb2",barb,,,,,,[details],[edit],barb,,Antigua,Barbuda,web,334550D8,0.26,08:42,17',6',[open]
SSC-barb,Barbuda,Antigua and Barbuda,17.59,-61.82,"barb, barb2",barb,,,,,,[details],[edit],barb2,,Antigua,Barbuda,SXXX03,334550D8,-1.51,08:41,18',6',[open]
SSC-barc,Barcelona,Spain,41.34,2.16,barc,,,,1811,3533,3532,[details],[edit],barc,,Spain,Barcelona,ftp,,0.44,08:48,11',4',[open]
SSC-barii,Bari,Italy,41.14,16.87,BA05,,,,2075,,,[details],[edit],BA05,,Italy,Bari,web,,-999,2017-06-13 02:38,100d,5',[open]
SSC-barm,Barmouth,United Kingdom,52.72,-4.05,barm,,,,1771,,,[details],[edit],barm,,UK,Barmouth,ftp,,5.11,08:30,29',15',[open]
SSC-bass,Basseterre (Coast Guard Base),Saint Kitts and Nevis,17.29,-62.71,bass,bass,,,2004,,,[details],[edit],bass,,St. Kitts & Nevis,Basseterre (Coast Guard Base),SOAT10,FA8005BC,-999,08:48,11',5',[open]
SSC-bbbc,Bella Bella,Canada,52.16,-128.14,bbbc,bbbc,,,,,,[details],[edit],bbbc,,Canada,Bella Bella,SXAK50,CD401E4C,4.68,08:53,6',5',[open]
SSC-bell,Bella Bella,Canada,52.17,-128.13,,,,,984,3209,3208,[details],[edit],bbbc,,Canada,Bella Bella,SXAK50,CD401E4C,4.68,08:53,6',5',[open]
SSC-bdto,Bocas Del Toro,Panama,9.35,-82.26,bdto,bdto,,,,,,[details],[edit],bdto,,Panamá,Bocas Del Toro,SOPM10,F230215A,-2.35,08:48,11',5',[open]
SSC-beau,Beaufort,United States,32.43,-80.67,,,,,1537,,,[details],[edit],benc,,USA,Beaufort,web,3364C6AE,0.56,08:45,14',5',[open]
SSC-beau,Beaufort,United States,32.43,-80.67,,,,,1537,,,[details],[edit],benc2,,USA,Beaufort,SXXX03,3364C6AE,-3.58,08:38,21',5',[open]
SSC-benc,Beaufort,United States,34.72,-76.67,"benc, benc2",benc,,,719,,,[details],[edit],benc,,USA,Beaufort,web,3364C6AE,0.56,08:45,14',5',[open]
SSC-benc,Beaufort,United States,34.72,-76.67,"benc, benc2",benc,,,719,,,[details],[edit],benc2,,USA,Beaufort,SXXX03,3364C6AE,-3.58,08:38,21',5',[open]
SSC-beno,Benoa,Indonesia,-8.77,115.22,beno,beno,49.0,163,"1738, 2200","2945, 3404","2812, 3585",[details],[edit],beno,49,Indonesia,Benoa,SZID43,06508948,2.78,2017-04-13 20:10,161d,6',[open]
SSC-bgct,Bridgeport,United States,41.17,-73.18,"bgct, bgct2",bgct,,,1068,,,[details],[edit],bgct,,USA,Bridgeport,web,,0.76,08:42,17',5',[open]
SSC-bgct,Bridgeport,United States,41.17,-73.18,"bgct, bgct2",bgct,,,1068,,,[details],[edit],bgct2,,USA,Bridgeport,SXXX03,3372E712,-5.76,08:37,22',5',[open]
SSC-bitu,Bitung,Indonesia,1.44,125.19,bitu,bitg,69.0,33,"1709, 308","3215, 3405",2822,[details],[edit],bitu,69,Indonesia,Bitung,SZID42,06504284,5.74,07:17,2h,6',[open]
SSC-blueb,Blue Bay,Mauritius,-20.44,57.71,blueb,blue,,,930,,,[details],[edit],blueb,,Mauritius,Blue Bay,SXXX32,22BF90A6,3.58,08:45,14',15',[open]
SSC-bmsa,Bahia Mansa,Chile,-40.58,-73.74,"bmsa, bmsa2",bmsa,,,,,,[details],[edit],bmsa,,Chile,Bahia Mansa,SXCH40,14063458,3.26,08:47,12',5',[open]
SSC-bmsa,Bahia Mansa,Chile,-40.58,-73.74,"bmsa, bmsa2",bmsa,,,,,,[details],[edit],bmsa2,,Chile,Bahia Mansa,web,,3.13,08:50,9',5',[open]
SSC-bnjl,Banjul,Gambia,13.44,-16.57,bnjl,,,,,,,[details],[edit],bnjl,,Gambia,Banjul,ftp,18D497E4,1.37,2017-06-14 00:45,99d,1h,[open]
SSC-bodr,Bodrum,Turkey,37.03,27.42,bodr,bodr,,,"1204, 1680",,,[details],[edit],bodr,,Turkey,Bodrum,ftp,,1.06,2017-09-14 15:31,7d,2',[open]
SSC-boma,Boston,United States,42.36,-71.05,"boma, boma2",boma,,741,235,,,[details],[edit],boma,,USA,Boston,web,335E54EE,1.02,08:48,11',5',[open]
SSC-bork,Borkum Fischerbalje,Germany,53.56,6.75,bork,,,,"1037, 573","1938, 2511, 639",2512,[details],[edit],bork,,Germany,Borkum Fischerbalje,web,,5.31,10:00,-61',5',[open]
SSC-bouc,Boucau-Bayonne,France,43.53,-1.51,"bouc, bouc2",bouc,,,1801,3192,"1734, 3482",[details],[edit],bouc,,France,Boucau-Bayonne,ftp,,1.03,08:48,11',5',[open]
SSC-boul,Boulogne-Sur-Mer,France,50.73,1.58,"boul, boul2",boul,,,471,3187,1735,[details],[edit],boul,,France,Boulogne-Sur-Mer,ftp,,3.86,08:47,11',5',[open]
SSC-bour,Bournemouth,United Kingdom,50.71,-1.87,bour,,,,1878,,,[details],[edit],bour,,UK,Bournemouth,ftp,,2.32,08:30,29',15',[open]
SSC-bozy,Bozyazi,Turkey,36.1,32.94,bozy,,,,2014,,,[details],[edit],bozy,,Turkey,Bozyazi,ftp,,1.2,2017-09-14 15:31,7d,2',[open]
SSC-bres,Brest,France,48.38,-4.5,bres,,242.0,822,1,"3180, 642",1736,[details],[edit],bres,242,France,Brest,ftp,,2.63,08:47,12',5',[open]
SSC-brid,Bridgetown Port,Barbados,13.11,-59.62,brid,brid,,249,"1231, 1766","2092, 634",2217,[details],[edit],brid,,Barbados,Bridgetown Port,SOBR10,14004206,0.45,08:43,16',1h,[open]
SSC-brom,Broome,Australia,-18.0,122.22,brom,brom,40.0,166,"1159, 1171",3221,2806,[details],[edit],brom,40,Australia,Broome,SZAU01,62650,1.61,08:50,9',3',[open]
SSC-brpt,Barbers Point,United States,21.32,-158.12,brpt,brpt,,547,,,,[details],[edit],brpt,,Hawaii,Barbers Point,SEPO40,35403732,3.62,2017-07-17 10:07,66d,5',[open]
SSC-buca,Bucalemu,Chile,-34.64,-72.05,"buca, buca2, buca3",buca,,,,,,[details],[edit],buca,,Chile,Bucalemu,SXCH40,ADC203CA,2.87,08:48,11',5',[open]
SSC-buca,Bucalemu,Chile,-34.64,-72.05,"buca, buca2, buca3",buca,,,,,,[details],[edit],buca2,,Chile,Bucalemu,web,,-999,2016-11-10 17:02,315d,5',[open]
SSC-buca,Bucalemu,Chile,-34.64,-72.05,"buca, buca2, buca3",buca,,,,,,[details],[edit],buca3,,Chile,Bucalemu,web,,2.74,08:50,8',1',[open]
SSC-bull,Bullen Bay,Curacao,12.19,-69.02,"bull, will",bull,,878,,,,[details],[edit],bull,,Curaçao,Bullen Bay,SEPO40,3541C54C,2.58,08:51,8',5',[open]
SSC-busa,Busan,South Korea,35.09,129.04,busa,busa,84.0,,955,2909,2830,[details],[edit],busa,84,Korea,Busan,ftp,,0.79,08:46,13',1',[open]
SSC-buve,Buenaventura,Colombia,3.89,-77.08,"buve, buve2",buve,170.0,85,456,2046,2393,[details],[edit],buve,170,Colombia,Buenaventura,ftp,,4.72,08:02,57',5',[open]
SSC-buve,Buenaventura,Colombia,3.89,-77.08,"buve, buve2",buve,170.0,85,456,2046,2393,[details],[edit],buve2,170,Colombia,Buenaventura,SXCO41,15AA92C8,5.19,08:51,8',5',[open]
SSC-cabc,Carrie Bow Cay,Belize,16.8,-88.08,cabc,cabc,,,,,,[details],[edit],cabc,,Belize,Carrie Bow Cay,SOBH10,777022C4,1.01,08:39,20',5',[open]
SSC-cadi,Cadiz,Spain,36.5,-6.2,cadi,cadi,,,"209, 514, 985","3055, 3460, 839","2182, 2397",[details],[edit],cadi,,Spain,Cadiz,bgan,CADI,0.14,08:38,21',1',[open]
SSC-cagl,Cagliari,Italy,39.21,9.11,CA02,cagl,,,"104, 2089","2412, 3575, 645",2252,[details],[edit],CA02,,Italy,Cagliari,web,,-999,2017-09-14 08:07,7d,5',[open]
SSC-cala,Calais,France,50.97,1.87,"cala, cala2",cals,,,455,3539,1739,[details],[edit],cala,,France,Calais,ftp,,2.33,08:46,12',5',[open]
SSC-cald,Caldera,Chile,-27.06,-70.82,"cald, cald2",cald,,88,"1512, 619",,,[details],[edit],cald,,Chile,Caldera,SXCH40,ADC104C4,3.93,08:48,11',5',[open]
SSC-cald,Caldera,Chile,-27.06,-70.82,"cald, cald2",cald,,88,"1512, 619",,,[details],[edit],cald2,,Chile,Caldera,web,,3.86,08:47,12',5',[open]
SSC-camp,Campbell River,Canada,50.02,-125.23,crbc,crbc,,,1323,3202,3201,[details],[edit],crbc,,Canada,Campbell River,SXAK50,CD402BD6,-999,2017-04-20 22:38,153d,5',[open]
SSC-camt,Lerma Campeche,Mexico,19.81,-90.59,camt,,,,,"2992, 2993",2991,[details],[edit],camt,,Mexico,Lerma Campeche,ftp,,3.18,2017-09-19 18:06,2d,1h,[open]
SSC-camu,Caja de Muertos,Puerto Rico,17.89,-66.53,camu,camu,,,,,,[details],[edit],camu,,Puerto Rico,Caja de Muertos,SXXX03,3366A6BC,-2.35,2017-09-20 13:43,19h,6',[open]
SSC-carb,Carboneras,Spain,36.97,-1.9,carb,,,,,,,[details],[edit],carb,,Spain,Carboneras,ftp,,0.12,08:48,11',4',[open]
SSC-cart,Cartagena,Colombia,10.4,-75.55,cart,,207.0,265,"1848, 572",925,2282,[details],[edit],carg,,Spain,Cartagena,bgan,CARG,0.5,08:38,21',1',[open]
SSC-cartm,Cartagena,Spain,37.6,-0.97,carg,,,,1460,3451,3450,[details],[edit],carg,,Spain,Cartagena,bgan,CARG,0.5,08:38,21',1',[open]
SSC-casc,Cascais,Portugal,38.69,-9.42,casc,,246.0,209,"2201, 52",648,2274,[details],[edit],casc,246,Portugal,Cascais,socket,,-1.33,08:59,-0',0.0833',[open]
SSC-cast,Castletownbere,Ireland,51.65,-9.9,cast,,330.0,835,1467,,2901,[details],[edit],cast,330,Ireland,Castletownbere,ftp,,0.05,08:00,59',1h,[open]
SSC-catn,Catania,Italy,37.5,15.09,CT03,cata,,,"102, 2094",2253,2251,[details],[edit],CT03,,Italy,Catania,web,,-0.02,08:52,7',5',[open]
SSC-cbmd,Cambridge,United States,38.57,-76.07,"cbmd, cbmd2",cbmd,,,"1295, 481",694,"2122, 2751",[details],[edit],cbmd,,USA,Cambridge,web,3366E5B6,1.15,08:48,11',5',[open]
SSC-cbmd,Cambridge,United States,38.57,-76.07,"cbmd, cbmd2",cbmd,,,"1295, 481",694,"2122, 2751",[details],[edit],cbmd2,,USA,Cambridge,SXXX03,3366E5B6,,2017-04-24 19:36,150d,5',[open]
SSC-cdtt,Cedros Bay,Trinidad and Tobago,10.09,-61.87,cdtt,cdtt,,,,,,[details],[edit],cdtt,,Trinidad & Tobago,Cedros Bay,SOTD10,A9C013C0,-999,2017-01-26 12:32,238d,1h,[open]
SSC-ceib,La Ceiba Cabotaje Harbor,Honduras,15.79,-86.76,ceib,ceib,,,,,,[details],[edit],ceib,,Honduras,La Ceiba Cabotaje Harbor,SOHO10,50C46088,0.53,2017-09-20 06:10,1d,1h,[open]
SSC-cent,Centuri,France,42.97,9.35,"cent, cent2",cent,,,2207,3196,3176,[details],[edit],cent,,France,Centuri,ftp,,0.63,08:47,11',5',[open]
SSC-ceut,Ceuta,Spain,35.9,-5.32,ceut,,249.0,207,"1316, 1416, 1485, 1517, 498","1922, 650",2213,[details],[edit],ceut,249,Spain,Ceuta,web,,0.44,2017-09-19 07:00,2d,1d,[open]
SSC-ceut,Ceuta,Spain,35.9,-5.32,ceut,,249.0,207,"1316, 1416, 1485, 1517, 498","1922, 650",2213,[details],[edit],ceut1,,Spain,Ceuta,bgan,CEUT1,0.12,08:38,21',1',[open]
SSC-cfrt,Carloforte,Italy,39.14,8.31,CF06,,,,2076,,,[details],[edit],CF06,,Italy,Carloforte,web,,0.29,08:53,6',5',[open]
SSC-chenn,Chennai,India,13.1,80.3,chenn,chen,34.0,,205,2069,2440,[details],[edit],chenn,34,India,Chennai,ftp,43280,0.41,08:15,44',10',[open]
SSC-cher,Cherbourg,France,49.65,-1.63,"cher, cher2",cher,,,467,"3182, 3183, 3535",1748,[details],[edit],cher,,France,Cherbourg,ftp,,6.56,08:47,12',5',[open]
SSC-chij,Chichijima,Japan,27.08,142.18,chij,chij,103.0,47,1391,"2413, 808",2137,[details],[edit],chij,103,Japan,Chichijima,SWJP40,CHICHIJIMA,2.43,08:39,20',10',[open]
SSC-chnr,Chañaral,Chile,-26.35,-70.63,"chnr, chnr2",chnr,,,,,,[details],[edit],chnr,,Chile,Chañaral,SXCH40,ADC296A8,3.35,08:49,10',5',[open]
SSC-chnr,Chañaral,Chile,-26.35,-70.63,"chnr, chnr2",chnr,,,,,,[details],[edit],chnr2,,Chile,Chañaral,web,,3.25,08:48,10',5',[open]
SSC-chrl,Charlotteville,Trinidad and Tobago,11.32,-60.55,chrl,chrl,,,2007,,,[details],[edit],chrl,,Trinidad & Tobago,Charlotteville,SOTD10,A9C043BC,0.04,2016-08-16 13:33,401d,1h,[open]
SSC-chrp,Cherry Point,United States,48.86,-122.76,"chrp, chrp2",chrp,,,1633,,,[details],[edit],chrp,,USA,Cherry Point,web,336BB6AC,1.01,08:52,7',5',[open]
SSC-chrp,Cherry Point,United States,48.86,-122.76,"chrp, chrp2",chrp,,,1633,,,[details],[edit],chrp2,,USA,Cherry Point,SXXX03,336BB6AC,-6.68,08:45,14',5',[open]
SSC-chrs,Christmas Island,Australia,-10.43,105.67,chrs,chrs,47.0,170,1010,2929,2811,[details],[edit],chrs,47,Australia,Christmas Island,SZIO01,46290,0.34,08:53,6',3',[open]
SSC-xmas,Christmas Island,Kiribati,1.98,-157.47,xmas,xmas,146.0,11,"1371, 801",,2848,[details],[edit],chrs,47,Australia,Christmas Island,SZIO01,46290,0.34,08:53,6',3',[open]
SSC-chtt,Chittagong,Bangladesh,22.33,91.83,chtt,chtt,36.0,124,"1573, 2196, 416, 750, 975, 991",3599,2804,[details],[edit],chtt,36,Bangladesh,Chittagong,SZBW40,065079CC,7.8,08:49,10',6',[open]
SSC-cila,Cilacap,Indonesia,-7.75,109.0,"cila, cili","cila, cili",291.0,162,"1602, 2199, 272",3413,"2892, 3586",[details],[edit],cili,291,Indonesia,Cilacap,SZID49,0650FFD8,2.87,2017-07-13 07:44,70d,6',[open]
SSC-civi,Civitavecchia,Italy,42.09,11.79,CI20,,,,"106, 2091",2256,2255,[details],[edit],CI20,,Italy,Civitavecchia,web,,0.08,08:53,6',5',[open]
SSC-cmet,Caleta Meteoro,Chile,-52.97,-74.07,"cmet, cmet3",cmet,,,,,,[details],[edit],cmet,,Chile,Caleta Meteoro,SXCH40,140204F8,1.79,08:44,15',15',[open]
SSC-cmet,Caleta Meteoro,Chile,-52.97,-74.07,"cmet, cmet3",cmet,,,,,,[details],[edit],cmet3,,Chile,Caleta Meteoro,web,,1.86,08:50,9',15',[open]
SSC-cmnj,Cape May,United States,38.97,-74.96,"cmnj, cmnj2",cmnj,,746,1153,,,[details],[edit],cmnj,,USA,Cape May,web,335D53E0,0.47,08:48,11',5',[open]
SSC-cmnj,Cape May,United States,38.97,-74.96,"cmnj, cmnj2",cmnj,,746,1153,,,[details],[edit],cmnj2,,USA,Cape May,SXXX03,335D53E0,-4.8,08:47,12',5',[open]
SSC-cocb,Cocos Island,Australia,-12.12,96.89,cocb,cocb,46.0,171,"1052, 1666, 983",656,2218,[details],[edit],cocb,46,Australia,Cocos Island,SZIO01,46280,1.06,08:53,6',3',[open]
SSC-coch,Cochin,India,9.97,76.27,coch,coch,32.0,174,438,2067,2438,[details],[edit],coch,32,India,Cochin,ftp,43357,1.02,08:19,40',10',[open]
SSC-cois,Corn Island,Nicaragua,12.33,-83.07,cois,,,,,,,[details],[edit],cois,,Nicaragua,Corn Island,SXXX50,22178120,1.27,2017-07-07 12:09,76d,1h,[open]
SSC-colo,Colombo,Sri Lanka,6.95,79.85,"colb, colo","colb, colo",33.0,115,"1755, 2194, 388, 718",3582,1994,[details],[edit],colo,33,Sri Lanka,Colombo,SWIO40,xxxxxxxx,1.25,08:45,14',15',[open]
SSC-como,Comores,Comoros,-11.7,43.25,como,como,,,,,,[details],[edit],como,,Comores,Comores,SXXX32,166AC436,0.01,08:38,21',15',[open]
SSC-conc,Concarneau,France,47.87,-3.91,"conc, conc2",conc,,,1301,3189,1751,[details],[edit],conc,,France,Concarneau,ftp,,1.48,08:47,11',5',[open]
SSC-const,Constitucion,Chile,-35.36,-72.46,"cons2, const",cons,,,,,,[details],[edit],cons2,,Chile,Constitucion,web,,4.57,08:54,5',5',[open]
SSC-const,Constitucion,Chile,-35.36,-72.46,"cons2, const",cons,,,,,,[details],[edit],const,,Chile,Constitucion,SXCH40,ADC154B8,4.58,08:50,9',5',[open]
SSC-coqu,Coquimbo,Chile,-29.95,-71.34,"coqu, coqu2",coqu,,,977,,,[details],[edit],coqu,,Chile,Coquimbo,SXCH40,ADC117B2,3.44,08:48,11',5',[open]
SSC-coqu,Coquimbo,Chile,-29.95,-71.34,"coqu, coqu2",coqu,,,977,,,[details],[edit],coqu2,,Chile,Coquimbo,web,,3.38,08:47,11',5',[open]
SSC-cord,Cordova,United States,60.56,-145.75,"cord, cord2",cord,,583,566,2672,2671,[details],[edit],cord,,USA,Cordova,web,335FA690,3.23,08:51,8',5',[open]
SSC-cord,Cordova,United States,60.56,-145.75,"cord, cord2",cord,,583,566,2672,2671,[details],[edit],cord2,,USA,Cordova,SXXX03,335FA690,-4.85,08:44,15',5',[open]
SSC-corie,Corinth,Greece,37.95,22.94,corn,corn,,,,,,[details],[edit],corn,,Greece,Corinth,bgan,CORN,0.58,08:37,22',1',[open]
SSC-corr,Corral,Chile,-39.89,-73.43,"corr, corr2",corr,,,1057,2654,2653,[details],[edit],corr,,Chile,Corral,SXCH40,14066424,4.37,08:49,10',5',[open]
SSC-corr,Corral,Chile,-39.89,-73.43,"corr, corr2",corr,,,1057,2654,2653,[details],[edit],corr2,,Chile,Corral,web,,4.25,08:55,3',5',[open]
SSC-coru,La Coruña,Spain,43.37,-8.4,"cor2, coru",,243.0,830,"1808, 484, 763",618,"2195, 2399, 2400",[details],[edit],coru,243,Spain,La Coruña,web,,1.15,2017-09-19 07:50,2d,1d,[open]
SSC-cove,Coveñas,Colombia,9.41,-76.21,cove,cove,,,,,,[details],[edit],cove,,Colombia,Coveñas,ftp,,0.3,08:30,29',15',[open]
SSC-cpit,Castlepoint,New Zealand,-40.9,176.23,cpit,cpit,,,,,,[details],[edit],cpit,,New Zealand,Castlepoint,SZNZ01,CPIT,4.01,08:46,13',3',[open]
SSC-cres,Crescent City,United States,41.75,-124.18,"cres, cres2",cres,,556,378,"2711, 3036",2693,[details],[edit],cres,,USA,Crescent City,web,33622592,2.03,08:48,11',5',[open]
SSC-cres,Crescent City,United States,41.75,-124.18,"cres, cres2",cres,,556,378,"2711, 3036",2693,[details],[edit],cres2,,USA,Crescent City,SXXX03,33622592,-3.62,08:47,12',5',[open]
SSC-crnl,Coronel,Chile,-37.03,-73.15,"crnl, crnl2",crnl,,,,,,[details],[edit],crnl,,Chile,Coronel,SXCH40,ADC1C1DA,3.79,08:46,13',5',[open]
SSC-crnl,Coronel,Chile,-37.03,-73.15,"crnl, crnl2",crnl,,,,,,[details],[edit],crnl2,,Chile,Coronel,web,,3.75,08:51,8',5',[open]
SSC-crom,Cromer,United Kingdom,52.93,1.3,crom,,,,1632,3245,3244,[details],[edit],crom,,UK,Cromer,ftp,,4.62,08:30,29',15',[open]
SSC-crtn,Crotone,Italy,39.08,17.14,CR08,,,,2077,3057,3056,[details],[edit],CR08,,Italy,Crotone,web,,-999,2017-09-03 20:32,18d,5',[open]
SSC-csta,Constanta,Romania,44.16,28.6,csta,,,,379,3378,3377,[details],[edit],csta,,Romania,Constanta,ftp,,-1.17,08:49,10',1',[open]
SSC-csta,Constanta,Romania,44.16,28.6,csta,,,,379,3378,3377,[details],[edit],csta2,,Romania,Constanta,bgan,CSTA2,-8.01,08:35,24',1',[open]
SSC-cstr,Castro,Chile,-42.48,-73.76,"cstr, cstr2",cstr,,,,,,[details],[edit],cstr,,Chile,Castro,SXCH40,ADC1315E,5.72,08:44,15',10',[open]
SSC-cstr,Castro,Chile,-42.48,-73.76,"cstr, cstr2",cstr,,,,,,[details],[edit],cstr2,,Chile,Castro,web,,6.73,2017-05-03 11:43,141d,10',[open]
SSC-curri,Currimao,Philippines,18.02,120.48,curri,curi,,654,2173,,,[details],[edit],curri,,Philippines,Currimao,SXXX33,12D7050E,4.5,08:48,11',15',[open]
SSC-cuvie,Cape Cuvier Wharf,Australia,-24.22,113.4,cuvie,capc,,,,,,[details],[edit],cuvie,,Australia,Cape Cuvier Wharf,SZAU01,62385,0.45,08:50,9',3',[open]
SSC-cuxh,Cuxhaven,Germany,53.87,8.72,cuxh,,284.0,825,"222, 7",2509,2510,[details],[edit],cuxh,284,Germany,Cuxhaven,web,,4.62,08:52,7',5',[open]
SSC-cwfl,Clearwater Beach,United States,27.98,-82.83,"cwfl, cwfl2",cwfl,,773,1638,,,[details],[edit],cwfl,,USA,Clearwater Beach,web,3358C142,0.47,08:47,12',5',[open]
SSC-cwfl,Clearwater Beach,United States,27.98,-82.83,"cwfl, cwfl2",cwfl,,773,1638,,,[details],[edit],cwfl2,,USA,Clearwater Beach,SXXX50,3358C142,-5.5,08:40,19',5',[open]
SSC-dakar,Dakar,Senegal,14.68,-17.42,dakar,daka,253.0,223,"1726, 1816, 1994, 1995, 1996, 476, 932","2734, 661","2202, 2782",[details],[edit],dakar,253,Sénégal,Dakar,SXXX33,360916B8,7.25,08:46,13',15',[open]
SSC-darw,Darwin,Australia,-12.47,130.85,darw,darw,62.0,168,935,2930,2818,[details],[edit],darw,62,Australia,Darwin,SZAU01,63230,7.03,08:50,9',3',[open]
SSC-davo,Davao,Philippines,7.08,125.63,davo,davo,71.0,372,537,3504,2824,[details],[edit],davo,71,Philippines,Davao,SWPH41,06505F20,8.14,08:50,9',6',[open]
SSC-delf,Delfzijl,Netherlands,53.33,6.93,delf,,,,24,,,[details],[edit],delf,,Netherlands,Delfzijl,web,,0.62,08:30,29',10',[open]
SSC-denh,Den Helder,Netherlands,52.96,4.75,denh,,,,23,,,[details],[edit],denh,,Netherlands,Den Helder,web,,0.67,08:30,29',10',[open]
SSC-dese,Puerto Deseado,Argentina,-47.75,-65.91,dese,dese,190.0,286,185,"2050, 3567, 946",2562,[details],[edit],dese,190,Argentina,Puerto Deseado,SEPO40,33912088,4.6,08:49,10',15',[open]
SSC-dial,Dauphin Island,United States,30.2,-88.1,"dial, dial2",dial,,763,1156,"2971, 2972, 745",2113,[details],[edit],dial,,USA,Dauphin Island,web,335752B2,0.34,08:46,13',5',[open]
SSC-diba,Diba,Oman,25.65,56.27,diba,diba,,,,,,[details],[edit],diba,,Oman,Diba,SXOM33,18EE7334,0.14,08:45,14',6',[open]
SSC-diel,Dielette,France,49.55,-1.86,"diel, diel2",,,,,,,[details],[edit],diel,,France,Dielette,ftp,,8.79,08:47,11',5',[open]
SSC-diep,Dieppe,France,49.93,1.09,"diep, diep2",diep,,,474,"3184, 3188, 3534",1904,[details],[edit],diep,,France,Dieppe,ftp,,5.83,08:48,11',5',[open]
SSC-djib,Djibouti,Djibouti,11.6,43.17,djib,bout,2.0,119,"1291, 2225",,1995,[details],[edit],djib,2,Djibouti,Djibouti,SXXX32,3601E29A,,2017-07-10 12:26,73d,15',[open]
SSC-dlpr,Deal Pier,United Kingdom,51.22,1.41,dlpr,,,,,,,[details],[edit],dlpr,,UK,Deal Pier,web,,-0.76,08:57,2',0.1666',[open]
SSC-dnrc,Dover,United States,39.16,-75.52,,,,,,916,,[details],[edit],dove,,UK,Dover,ftp,,2.18,08:30,29',15',[open]
SSC-dove,Dover,United Kingdom,51.11,1.32,dove,,,,255,2013,2385,[details],[edit],dove,,UK,Dover,ftp,,2.18,08:30,29',15',[open]
SSC-dpnc,Duck Pier,United States,36.18,-75.75,"dpnc, dpnc2",dpnc,219.0,260,1636,"1884, 1885, 668",2154,[details],[edit],dpnc,219,USA,Duck Pier,web,335DD5F4,0.69,08:50,9',5',[open]
SSC-dunk,Dunkerque,France,51.05,2.37,"dunk, dunk2",dunk,,,468,"3185, 3186, 3415",1758,[details],[edit],dunk,,France,Dunkerque,ftp,,1.71,08:48,11',5',[open]
SSC-duqm,Duqm,Oman,19.66,57.72,duqm,duqm,,,,,,[details],[edit],duqm,,Oman,Duqm,SXOM33,18EB74F4,0.18,08:46,13',6',[open]
SSC-elak,Elfin Cove,United States,58.19,-136.34,"elak, elak2",elak,,,,,,[details],[edit],elak,,USA,Elfin Cove,web,3360C394,2.83,08:47,12',5',[open]
SSC-elak,Elfin Cove,United States,58.19,-136.34,"elak, elak2",elak,,,,,,[details],[edit],elak2,,USA,Elfin Cove,SXXX03,3360C394,-4.93,08:46,13',5',[open]
SSC-elpo,El Porvenir,Panama,9.56,-78.95,elpo,elpo,,739,,,,[details],[edit],elpo,,Panamá,El Porvenir,SEPO40,354084BC,6.71,08:48,11',5',[open]
SSC-epme,East Port,United States,44.9,-66.99,"epme, epme2",epme,,740,332,670,2354,[details],[edit],epme,,USA,East Port,web,3365875E,0.83,08:47,12',5',[open]
SSC-epme,East Port,United States,44.9,-66.99,"epme, epme2",epme,,740,332,670,2354,[details],[edit],epme2,,USA,East Port,SXXX03,3365875E,-8.88,08:46,13',5',[open]
SSC-erdem,Erdemli,Turkey,36.57,34.25,erdem,,,,2009,2652,2651,[details],[edit],erdem,,Turkey,Erdemli,ftp,,1.34,2017-09-14 15:31,7d,2',[open]
SSC-espe,Esperance,Australia,-33.87,121.9,espe,espe,54.0,176,"1114, 1127",2059,2109,[details],[edit],espe,54,Australia,Esperance,SZAU01,62080,0.85,08:50,9',3',[open]
SSC-faja,Fajardo,Puerto Rico,18.33,-65.63,faja,faja,,783,2211,,,[details],[edit],faja,,Puerto Rico,Fajardo,SXXX03,3366C35A,-1.83,2017-09-20 08:50,1d,6',[open]
SSC-ferg,Cape Ferguson,Australia,-19.28,147.06,ferg,ferg,60.0,334,"1492, 584, 637, 963",858,"2321, 2585",[details],[edit],ferg,60,Australia,Cape Ferguson,SZAU01,59260,1.85,08:50,9',3',[open]
SSC-feth,Fethiye,Turkey,36.62,29.09,feth,feth,,,,,,[details],[edit],feth,,Turkey,Fethiye,bgan,FETH,1.34,08:37,22',1',[open]
SSC-figu,La Figueirette,France,43.48,6.93,"figu, figu2",figu,,,2232,"3194, 3541",3165,[details],[edit],figu,,France,La Figueirette,ftp,,0.57,08:47,11',5',[open]
SSC-fish,Fishguard,United Kingdom,52.01,-4.98,fish,,,,"1731, 939",,,[details],[edit],fish,,UK,Fishguard,ftp,,4.69,08:30,29',15',[open]
SSC-fmfl,Fort Myers,United States,26.65,-81.87,"fmfl, fmfl2",fmfl,,,1106,3521,3520,[details],[edit],fmfl,,USA,Fort Myers,web,336754C2,1.31,08:50,9',5',[open]
SSC-fmfl,Fort Myers,United States,26.65,-81.87,"fmfl, fmfl2",fmfl,,,1106,3521,3520,[details],[edit],fmfl2,,USA,Fort Myers,SXXX03,336754C2,-2.41,08:49,10',5',[open]
SSC-fong,Fongafale,Tuvalu,-8.5,179.2,fong,fong,121.0,25,"1452, 1839",865,2167,[details],[edit],fong,121,Tuvalu Islands,Fongafale,SZPS01,67440,1.98,08:53,6',3',[open]
SSC-form,Formentera,Spain,38.73,1.42,form,,,,2060,,,[details],[edit],form,,Spain,Formentera,ftp,,0.51,08:48,11',4',[open]
SSC-fort,Fortaleza,Brazil,-3.72,-38.47,fort,fort,336.0,283,559,"1921, 3455, 673",2300,[details],[edit],fort,336,Brasil,Fortaleza,SEPO40,3542D134,6.33,08:50,9',5',[open]
SSC-fosm,Fos-sur-Mer,France,43.4,4.89,fosm,,,,"2234, 969",3540,3163,[details],[edit],fosm,,France,Fos-sur-Mer,ftp,,0.51,08:47,12',5',[open]
SSC-fpga,Fort Pulaski,United States,32.03,-80.9,"fpga, fpga2",fpga,289.0,752,395,2721,2720,[details],[edit],fpga,289,USA,Fort Pulaski,web,335F151E,0.5,08:46,13',5',[open]
SSC-fpga,Fort Pulaski,United States,32.03,-80.9,"fpga, fpga2",fpga,289.0,752,395,2721,2720,[details],[edit],fpga2,289,USA,Fort Pulaski,SXXX03,335F151E,-5.3,08:45,14',5',[open]
SSC-frtr,Frontera,Mexico,18.15,-94.27,frtr,frtr,,,,,,[details],[edit],frtr,,Mexico,Frontera,ftp,,2.32,2017-09-05 16:12,16d,10',[open]
SSC-fuev,Fuerteventura,Spain,28.49,-13.86,fue2,,,,2048,3135,3134,[details],[edit],fue2,,Spain,Fuerteventura,ftp,,0.56,08:48,11',4',[open]
SSC-fuka,Fukaura,Japan,40.65,139.93,fuka,fuka,,,"121, 1317",,,[details],[edit],fuka,,Japan,Fukaura,SWJP40,FUKAURA,2.48,08:39,20',10',[open]
SSC-gand,Gandia,Spain,39.0,-0.15,gand,,,,2058,,,[details],[edit],gand,,Spain,Gandia,ftp,,0.1,08:48,11',4',[open]
SSC-ganm,Gan,Maldives,-0.69,73.15,ganm,ganm,27.0,109,"1025, 1481, 1661, 1707",3412,2801,[details],[edit],ganm,27,Maldive Islands,Gan,SXXX32,32D8A2BE,8.12,08:48,11',15',[open]
SSC-garc,Diego Garcia,United Kingdom,-7.23,72.43,garc,garc,26.0,104,"1740, 1982, 2190, 947","2553, 664","2181, 3587",[details],[edit],garc,26,UK,Diego Garcia,SZIO40,06504C56,8.36,08:49,10',6',[open]
SSC-gata,Gaeta,Italy,41.21,13.59,GA37,,,,2137,,,[details],[edit],GA37,,Italy,Gaeta,web,,-999,2017-05-15 05:05,129d,5',[open]
SSC-genv,Genova,Italy,44.41,8.93,GE25,genv,,,"2090, 59",678,2250,[details],[edit],GE25,,Italy,Genova,web,,0.18,08:41,18',5',[open]
SSC-geor,George Town,Cayman Islands,19.3,-81.38,geor,geor,,,"1422, 1426","1880, 3523","2140, 2731",[details],[edit],geor,,Cayman Islands,George Town,SOGC10,1320048C,0.16,08:49,10',5',[open]
SSC-gibr,Gibraltar,United Kingdom,36.13,-5.35,"gibr, gibr2",gibr,248.0,289,"2055, 2117, 490, 981","2232, 3373","2231, 3462, 3463",[details],[edit],gibr2,248,UK,Gibraltar,SXXX33,364026A2,-0.22,08:39,20',15',[open]
SSC-gijo,Gijon,Spain,43.56,-5.7,gij2,,,,"1871, 507",,,[details],[edit],gij2,,Spain,Gijon,ftp,,1.17,08:48,11',4',[open]
SSC-gist,Gisborne,New Zealand,-38.68,178.02,gist,gist,,78,1613,,,[details],[edit],gist,,New Zealand,Gisborne,SZNZ01,GIST,4.34,08:47,12',3',[open]
SSC-gokc,Gokceada,Turkey,40.23,25.89,gokc,,,,2015,,,[details],[edit],gokc,,Turkey,Gokceada,ftp,,1.03,2017-09-14 15:28,7d,2',[open]
SSC-goug,Gough Island,South Africa,-40.32,-9.95,goug,goug,,,,684,,[details],[edit],goug,,UK,Gough Island,SXXX32,18D74682,,08:49,10',15',[open]
SSC-gptx,Galveston Pier,United States,29.31,-94.79,"gptx, gptx2","gptx, pptx",217.0,"767, 775","161, 828","1934, 2973, 676","2355, 2356",[details],[edit],gptx,217,USA,Galveston Pier,web,336AB456,0.53,08:46,13',5',[open]
SSC-groo,Groote Eylandt,Australia,-13.86,136.42,groo,groo,,,"1160, 1177",,,[details],[edit],groo,,Australia,Groote Eylandt,SZAU01,63511,1.01,08:50,9',6',[open]
SSC-gwda,Gwadar,Pakistan,25.11,62.34,gwda,gwda,295.0,,1999,,2894,[details],[edit],gwda,295,Pakistan,Gwadar,SXXX33,1851B170,0.01,08:42,17',15',[open]
SSC-hade,Hadera,Israel,32.47,34.86,hade,,80.0,,1797,2022,2163,[details],[edit],hade,80,Israel,Hadera,ftp,,0.39,2017-08-31 02:53,21d,1',[open]
SSC-hain,Haing Gyi Kyun,Myanmar,16.0,94.32,hain,,,,,,,[details],[edit],hain,,Myanmar,Haing Gyi Kyun,SZBM45,48000,0.79,2017-09-04 19:24,17d,6',[open]
SSC-hako,Hakodate,Japan,41.47,140.43,hako,hako,88.0,364,"671, 813",799,"2312, 2755",[details],[edit],hako,88,Japan,Hakodate,SWJP40,HAKODATE,2.15,08:39,20',10',[open]
SSC-hana,Hanasaki,Japan,43.28,145.57,hana,hana,,,"139, 1442",,,[details],[edit],hana,,Japan,Hanasaki,SWJP40,HANASAKI,1.38,08:39,20',10',[open]
SSC-hani,Hanimadhoo,Maldives,6.77,73.17,hani,hani,,117,"1779, 2184",,,[details],[edit],hani,,Maldive Islands,Hanimadhoo,SXXX32,26CB10AC,6.29,08:46,13',15',[open]
SSC-harl,Harlingen,Netherlands,53.18,5.41,harl,,,,25,,,[details],[edit],harl,,Netherlands,Harlingen,web,,1.05,08:30,29',10',[open]
SSC-harw,Harwich,United Kingdom,51.95,1.29,harw,,,,"214, 742",,,[details],[edit],harw,,UK,Harwich,ftp,,2.06,08:30,29',15',[open]
SSC-hbay,Herne Bay,United Kingdom,51.38,1.12,hbay,,,,,,,[details],[edit],hbay,,UK,Herne Bay,web,,-0.68,08:57,1',0.1666',[open]
SSC-helg,Helgoland Binnenhafen,Germany,54.18,7.89,helg,,,,"660, 713","3545, 691",2260,[details],[edit],helg,,Germany,Helgoland Binnenhafen,web,,5.43,08:52,7',5',[open]
SSC-herb,L'Herbaudière,France,47.03,2.3,"herb, herb2",herb,,,,,3478,[details],[edit],herb,,France,L'Herbaudière,ftp,,1.73,08:47,11',5',[open]
SSC-heys,Heysham,United Kingdom,54.03,-2.92,heys,,,,936,,,[details],[edit],heys,,UK,Heysham,ftp,,3.91,08:30,29',15',[open]
SSC-hieo,ElHierro,Spain,27.78,-17.9,hie2,,,,2051,3143,3142,[details],[edit],hie2,,Spain,ElHierro,ftp,,0.96,08:48,11',4',[open]
SSC-hink,Hinkley Point,United Kingdom,51.21,-3.13,hink,,,,1758,,,[details],[edit],hink,,UK,Hinkley Point,ftp,,10.81,08:30,29',15',[open]
SSC-hirt,Hirtshals,Denmark,57.6,9.97,hirt,,,,89,2064,2233,[details],[edit],hirt,,Denmark,Hirtshals,ftp,,-0.22,08:40,19',10',[open]
SSC-hmda,Hamada,Japan,34.9,132.07,hmda,hmda,326.0,348,"143, 1585, 94",804,"2150, 2740",[details],[edit],hmda,326,Japan,Hamada,SWJP40,HAMADA,2.38,08:39,20',10',[open]
SSC-honn,Honningsvåg,Norway,70.98,25.98,honn,,,801,1267,2091,2453,[details],[edit],honn,,Norway,Honningsvåg,web,,0.08,10:20,-81',1h,[open]
SSC-horn,Hörnum,Germany,54.76,8.3,horn,,,,,"2001, 2002, 3552",2261,[details],[edit],horn,,Germany,Hörnum,web,,4.5,08:55,4',5',[open]
SSC-huas,Huasco,Chile,-28.46,-71.22,"huas2, huas3",huas,,,,,,[details],[edit],huas2,,Chile,Huasco,web,,4.98,08:56,3',5',[open]
SSC-huas,Huasco,Chile,-28.46,-71.22,"huas2, huas3",huas,,,,,,[details],[edit],huas3,,Chile,Huasco,web,,4.94,08:50,9',5',[open]
SSC-huat,Huatulco,Mexico,15.75,-96.12,"huat, huat2",huat,,,,,,[details],[edit],huat,,Mexico,Huatulco,SOMX10,01010358,2.08,2017-09-15 15:56,6d,15',[open]
SSC-huat,Huatulco,Mexico,15.75,-96.12,"huat, huat2",huat,,,,,,[details],[edit],huat2,,Mexico,Huatulco,ftp,,-999,08:32,27',15',[open]
SSC-huel,Huelva5,Spain,37.13,-6.83,huel,,,,1883,"1923, 3458",2173,[details],[edit],huel,,Spain,Huelva5,ftp,,0.58,08:48,11',4',[open]
SSC-iaix,Ile d'Aix,France,46.01,-1.17,iaix,,,,2236,3005,3004,[details],[edit],iaix,,France,Ile d'Aix,ftp,,2.07,08:47,11',5',[open]
SSC-ibiz,Ibiza2,Spain,38.92,1.45,ibiz,,,,1932,942,2191,[details],[edit],ibiz,,Spain,Ibiza2,ftp,,0.51,08:48,11',4',[open]
SSC-ilfa,Ilfracombe,United Kingdom,51.21,-4.11,ilfa,,,,1214,,,[details],[edit],ilfa,,UK,Ilfracombe,ftp,,7.31,08:30,29',15',[open]
SSC-immi,Immingham,United Kingdom,53.63,-0.19,immi,,,,286,,,[details],[edit],immi,,UK,Immingham,ftp,,5.78,08:30,29',15',[open]
SSC-impr,Imperia,Italy,43.88,8.02,"IM01, im02",im02,,,"108, 2078",,,[details],[edit],IM01,,Italy,Imperia,web,,0.15,08:52,7',5',[open]
SSC-inav,Isla Naval,Colombia,10.18,-75.75,"inav, inav2",,,,,,,[details],[edit],inav,,Colombia,Isla Naval,SXCO41,15A05856,5.07,08:49,10',15',[open]
SSC-inav,Isla Naval,Colombia,10.18,-75.75,"inav, inav2",,,,,,,[details],[edit],inav2,,Colombia,Isla Naval,ftp,,29.3,08:30,29',5',[open]
SSC-iqui,Iquique,Chile,-20.2,-70.15,"iqui, iqui2",iqui,,,1963,,,[details],[edit],iqui,,Chile,Iquique,SXCH40,ADC1F440,4.84,08:48,11',5',[open]
SSC-iqui,Iquique,Chile,-20.2,-70.15,"iqui, iqui2",iqui,,,1963,,,[details],[edit],iqui2,,Chile,Iquique,web,,4.79,08:47,12',5',[open]
SSC-isab,Isabel Segunda,Puerto Rico,18.15,-65.44,isab,,,"732, 733","2209, 2210",,,[details],[edit],isab,,Puerto Rico,Isabel Segunda,SXXX03,3366D02C,-2.83,08:49,10',6',[open]
SSC-ishig,Ishigakijima,Japan,24.2,124.1,ishig,ishi,,365,"1411, 1671",3063,"3061, 3062",[details],[edit],ishig,,Japan,Ishigakijima,SWJP40,ISHIGAKIJIMA,2.46,08:39,20',10',[open]
SSC-iske,Iskenderun,Turkey,36.62,36.12,iske,,,,"2020, 697",,,[details],[edit],iske,,Turkey,Iskenderun,ftp,,1.83,2017-09-14 15:25,7d,2',[open]
SSC-itit,Isole Tremiti,Italy,42.12,15.5,IT45,,,,2248,,,[details],[edit],IT45,,Italy,Isole Tremiti,web,,-999,2017-07-31 15:06,52d,5',[open]
SSC-jack,Jackson Bay,New Zealand,-43.97,168.62,jack,"jack, jbay",,403,1882,,,[details],[edit],jack,,New Zealand,Jackson Bay,SZPS01,65180,1.98,08:53,6',6',[open]
SSC-jers,Jersey,United Kingdom,49.18,-2.12,jers,,,,"1795, 494, 694",,,[details],[edit],jers,,UK,Jersey,ftp,,9.86,08:30,29',15',[open]
SSC-juan,Juan Fernandez,Chile,-33.62,-78.83,"juan, juan2",juan,176.0,21,"1461, 1644, 1664, 904",,2856,[details],[edit],juan,176,Chile,Juan Fernandez,SXCH40,ADC0B5B0,4.42,08:52,7',5',[open]
SSC-juan,Juan Fernandez,Chile,-33.62,-78.83,"juan, juan2",juan,176.0,21,"1461, 1644, 1664, 904",,2856,[details],[edit],juan2,176,Chile,Juan Fernandez,web,,4.34,08:50,9',5',[open]
SSC-kait,Kaikoura,New Zealand,-42.41,173.7,kait,kait,,,,,,[details],[edit],kait,,New Zealand,Kaikoura,SZNZ01,KAIT,2.2,08:46,13',3',[open]
SSC-kant,Kanton,Kiribati,-2.8,-171.72,kant,kant,145.0,13,"1329, 575",,2847,[details],[edit],kant,145,Kiribati,Kanton,SEPA40,354305A6,0.18,08:45,14',15',[open]
SSC-kapi,Kapingamarangi,Micronesia,1.08,154.81,kapi,kapi,117.0,29,1473,,2841,[details],[edit],kapi,117,Micronesia,Kapingamarangi,SEPA40,3541D63A,-999,08:49,10',5',[open]
SSC-kara,Karachi,Pakistan,24.81,66.98,kara,kara,30.0,147,204,,2802,[details],[edit],kara,30,Pakistan,Karachi,SXXX33,120D7136,0.86,2017-07-26 06:21,57d,15',[open]
SSC-kast,Kasteli,Greece,35.51,23.64,kast,kast,,,,,,[details],[edit],kast,,Greece,Kasteli,SXXX33,16A5E02C,3.33,2016-12-25 11:22,270d,15',[open]
SSC-kata,Katakolo,Greece,37.64,21.32,kata,,,,1240,,,[details],[edit],kata,,Greece,Katakolo,ftp,,0.56,08:30,29',3',[open]
SSC-kepo,King Edward Point,United Kingdom,-54.28,-36.5,kepo,kepo,187.0,,896,3411,2861,[details],[edit],kepo,187,UK,King Edward Point,ftp,,0.28,06:10,3h,1h,[open]
SSC-kerg,Kerguelen Island,France,-49.35,70.22,"kerg, kerg2",kerg,23.0,180,1849,"3211, 3386, 710",1780,[details],[edit],kerg2,23,France,Kerguelen Island,SZIO01,FR023,1.86,08:44,15',15',[open]
SSC-keti,Keti Bandar,Pakistan,24.13,67.43,keba,,,,,,,[details],[edit],keba,,Pakistan,Keti Bandar,SXXX32,32CC9580,0.01,08:37,22',15',[open]
SSC-khol,Kholmsk,Russia,47.05,142.04,khol,khol,,,529,,,[details],[edit],khol,,Russia,Kholmsk,web,,3.83,2016-06-22 12:44,456d,10',[open]
SSC-kiel,LT Kiel,Germany,54.5,10.27,kiel,,,,,,,[details],[edit],kiel,,Germany,LT Kiel,web,,5.08,08:52,7',5',[open]
SSC-kinl,Kinlochbervie,United Kingdom,58.46,-5.05,kinl,,,,1775,3250,3249,[details],[edit],kinl,,UK,Kinlochbervie,ftp,,4.89,08:30,29',15',[open]
SSC-koro,Koroni,Greece,36.8,21.96,koro,koro,,,,,,[details],[edit],koro,,Greece,Koroni,bgan,KORO,,2017-04-27 22:55,146d,1',[open]
SSC-kors,Korsakov,Russia,46.63,142.77,kors,kors,,,,,,[details],[edit],kors,,Russia,Korsakov,web,,5.27,08:44,15',10',[open]
SSC-kush,Kushiro,Japan,42.97,144.38,kush,kush,89.0,350,518,798,2311,[details],[edit],kush,89,Japan,Kushiro,SWJP40,KUSHIRO,2.33,08:39,20',10',[open]
SSC-kusm,Kushimoto,Japan,33.49,135.46,kusm,kusm,85.0,353,134,803,2314,[details],[edit],kusm,85,Japan,Kushimoto,SWJP40,KUSHIMOTO,2.98,08:39,20',10',[open]
SSC-kwaj,Kwajalein,Marshall Islands,8.74,167.74,"kwaj, kwaj2",kwaj,111.0,55,513,717,2301,[details],[edit],kwaj,111,Marshall Islands,Kwajalein,web,336131EA,0.5,08:33,26',6',[open]
SSC-kwfl,Key West,United States,24.55,-81.81,"kwfl, kwfl2",kwfl,216.0,242,188,"1935, 2969, 2970, 718",2383,[details],[edit],kwfl,216,USA,Key West,web,336717C8,0.22,08:47,12',5',[open]
SSC-kwfl,Key West,United States,24.55,-81.81,"kwfl, kwfl2",kwfl,216.0,242,188,"1935, 2969, 2970, 718",2383,[details],[edit],kwfl2,216,USA,Key West,SXXX03,3349124E,-3.06,2016-10-18 17:30,338d,5',[open]
SSC-lagos,Lagos,Nigeria,6.42,3.41,lagos,lagx,259.0,233,"1767, 451",3550,2906,[details],[edit],lgos,,Portugal,Lagos,socket,,-1.39,08:59,-0',0.0833',[open]
SSC-lgos,Lagos,Portugal,37.1,-8.67,lgos,,,,162,720,2275,[details],[edit],lgos,,Portugal,Lagos,socket,,-1.39,08:59,-0',0.0833',[open]
SSC-lajo,La Jolla,United States,32.87,-117.26,"lajo, lajo2",lajo,159.0,554,256,"3465, 843",2364,[details],[edit],lajo,159,USA,La Jolla,web,3362A386,0.76,08:47,12',5',[open]
SSC-lajo,La Jolla,United States,32.87,-117.26,"lajo, lajo2",lajo,159.0,554,256,"3465, 843",2364,[details],[edit],lajo2,159,USA,La Jolla,SXXX03,3362A386,-9.39,2017-03-30 16:42,175d,5',[open]
SSC-lalb,La Libertad,El Salvador,13.49,-89.32,lalb,lalb,,,,,,[details],[edit],lalb,,El Salvador,La Libertad,SOES10,5030C75E,0.12,08:52,7',5',[open]
SSC-lalb,La Libertad,El Salvador,13.49,-89.32,lalb,lalb,,,,,,[details],[edit],lali,172,Ecuador,La Libertad,SEPO40,3540B126,6.46,08:48,11',5',[open]
SSC-lali,La Libertad,Ecuador,-2.21,-80.9,lali,lali,172.0,91,"544, 555","2082, 3510","2444, 2445",[details],[edit],lalb,,El Salvador,La Libertad,SOES10,5030C75E,0.12,08:52,7',5',[open]
SSC-lali,La Libertad,Ecuador,-2.21,-80.9,lali,lali,172.0,91,"544, 555","2082, 3510","2444, 2445",[details],[edit],lali,172,Ecuador,La Libertad,SEPO40,3540B126,6.46,08:48,11',5',[open]
SSC-lamu,Lamu,Kenya,-2.27,40.9,lamu,lamu,,149,"1872, 1985, 2198",,,[details],[edit],lamu,,Kenya,Lamu,SXXX33,16287190,5.91,08:46,13',15',[open]
SSC-lang,Langosteira,Spain,43.35,-8.53,lang,,,,,,,[details],[edit],lang,,Spain,Langosteira,ftp,,0.7,08:48,11',4',[open]
SSC-larp,La Rochelle-Pallice,France,46.16,-1.22,"larp, larp2",larp,,,466,934,1787,[details],[edit],larp,,France,La Rochelle-Pallice,ftp,,2.12,08:47,12',5',[open]
SSC-lasp,La Spezia,Italy,44.1,9.86,LA38,,,,2139,3436,3435,[details],[edit],LA38,,Italy,La Spezia,web,,-999,2017-09-08 00:37,13d,5',[open]
SSC-laun,La Union,El Salvador,13.31,-87.82,laun,laun,,86,"2223, 558, 740",,,[details],[edit],laun,,El Salvador,La Union,SEMS40,3354C0DE,7.84,08:39,20',15',[open]
SSC-laza,Lazaro Cardenas,Mexico,17.94,-102.18,laza,laza,,,,2285,2286,[details],[edit],laza,,Mexico,Lazaro Cardenas,ftp,,6.28,08:23,36',10',[open]
SSC-lebu,Lebu,Chile,-37.59,-73.66,"lebu, lebu2",lebu,,,1956,,,[details],[edit],lebu,,Chile,Lebu,SXCH40,ADC16122,3.25,08:49,10',5',[open]
SSC-lebu,Lebu,Chile,-37.59,-73.66,"lebu, lebu2",lebu,,,1956,,,[details],[edit],lebu2,,Chile,Lebu,web,,3.15,08:55,3',5',[open]
SSC-leco,Le Conquet,France,48.36,-4.78,"leco, leco2",leco,,,1294,3179,1792,[details],[edit],leco,,France,Le Conquet,ftp,,2.67,08:47,11',5',[open]
SSC-lecy,Le Crouesty,France,47.54,-2.9,lecy,,,,1921,3190,1793,[details],[edit],lecy,,France,Le Crouesty,ftp,,1.83,08:47,11',5',[open]
SSC-leha,Le Havre,France,49.48,0.11,"leha, leha2",leha,,,453,"3429, 3538",1794,[details],[edit],leha,,France,Le Havre,ftp,,7.69,08:47,12',5',[open]
SSC-leit,Leith,United Kingdom,55.99,-3.18,leit,,,,"1526, 802",3248,"3246, 3247",[details],[edit],leit,,UK,Leith,ftp,,0.63,08:30,29',15',[open]
SSC-lemba,Lembar,Indonesia,-8.73,116.07,lemba,"lemb, lobk",,419,,,,[details],[edit],lemba,,Indonesia,Lembar,SZID44,0650A176,5.23,08:52,7',6',[open]
SSC-lena,"Lenakel, Tanna",Vanuatu,-19.53,169.27,lena,lena,,,,,,[details],[edit],lena,,Vanuatu,"Lenakel, Tanna",SZNV41,91566,5.11,08:48,11',6',[open]
SSC-lero,Le Robert,France,14.68,-60.94,lero,lero,,"270, 271",,,,[details],[edit],lero,,Martinique,Le Robert,SOMR10,12A052EA,0.78,08:50,9',5',[open]
SSC-leso,Les Sables d'Olonne,France,46.5,-1.79,"leso, leso2",leso,,,1747,2012,1791,[details],[edit],leso,,France,Les Sables d'Olonne,ftp,,1.55,08:47,12',5',[open]
SSC-levu,Lautoka,Fiji,-17.6,177.44,levu,"laut, levu",,402,1805,723,2165,[details],[edit],levu,,Fiji Islands,Lautoka,SZPS01,67070,1.86,08:53,6',3',[open]
SSC-lifo,Lifou,France,-20.92,167.28,lifo,lifo,,,,3203,3167,[details],[edit],lifo,,France,Lifou,SZNC40,0652047A,1.45,08:48,11',6',[open]
SSC-lime,Limetree,United States,17.7,-64.75,"lime, lime2",lime,,254,,,,[details],[edit],lime,,USA,Limetree,web,3364B03E,1,2017-09-20 03:47,1d,6',[open]
SSC-lime,Limetree,United States,17.7,-64.75,"lime, lime2",lime,,254,,,,[details],[edit],lime2,,USA,Limetree,SXXX03,3364B03E,-2.89,2017-09-20 03:46,1d,6',[open]
SSC-limn,Limon,Costa Rica,9.99,-83.02,limon,limn,,268,"2191, 552",,,[details],[edit],limon,,Costa Rica,Limon,SEPO40,354011DE,6.67,08:50,9',5',[open]
SSC-lirn,Livorno,Italy,43.55,10.3,LI11,,,,"110, 2080",,,[details],[edit],LI11,,Italy,Livorno,web,,0.14,08:53,6',5',[open]
SSC-litz,"Litzlitz, Malekula",Vanuatu,-16.11,167.44,litz,litz,,,,,,[details],[edit],litz,,Vanuatu,"Litzlitz, Malekula",SZNV40,91556,4.81,08:48,11',6',[open]
SSC-livp,Liverpool,United Kingdom,53.45,-3.02,live,"livp, tpol",,,"15, 1774, 765",2026,"2160, 2736, 2756",[details],[edit],live,,UK,Liverpool,ftp,,4.71,08:30,29',15',[open]
SSC-llan,Llandudno,United Kingdom,53.33,-3.83,llan,,,,"1504, 1854",,,[details],[edit],llan,,UK,Llandudno,ftp,,3.75,08:15,44',15',[open]
SSC-lmpd,Lampedusa,Italy,35.5,12.6,LA23,lamp,,,2079,722,2226,[details],[edit],LA23,,Italy,Lampedusa,web,,0.03,08:51,8',5',[open]
SSC-losa,Los Angeles,United States,33.72,-118.27,"losa, losa2",losa,,567,"1045, 245","3280, 3513, 897",2374,[details],[edit],losa,,USA,Los Angeles,web,336AF75C,0.78,08:49,10',6',[open]
SSC-losa,Los Angeles,United States,33.72,-118.27,"losa, losa2",losa,,567,"1045, 245","3280, 3513, 897",2374,[details],[edit],losa2,,USA,Los Angeles,SXXX03,336AF75C,-4,08:48,11',6',[open]
SSC-lott,East Cape,New Zealand,-37.55,178.16,lott,lott,,,,,,[details],[edit],lott,,New Zealand,East Cape,SZNZ01,LOTT,4.17,08:47,12',3',[open]
SSC-lowe,Lowestoft,United Kingdom,52.47,1.75,lowe,,,,754,2027,2343,[details],[edit],lowe,,UK,Lowestoft,ftp,,2.46,08:30,29',15',[open]
SSC-luba,Lubang,Philippines,13.82,120.2,luba,luba,,655,,,,[details],[edit],luba,,Philippines,Lubang,SXXX33,221F4098,5.71,08:49,10',15',[open]
SSC-luga,Luganville,Vanuatu,-15.52,167.19,luga,luga,,,,,,[details],[edit],luga,,Vanuatu,Luganville,SZPS01,57210,1.16,08:53,6',6',[open]
SSC-lymg,Lymington,United Kingdom,50.74,-1.51,lymg,,,,,,,[details],[edit],lymg,,UK,Lymington,web,,0.37,08:57,1',0.1666',[open]
SSC-madry,Puerto Madryn,Argentina,-42.76,-65.03,madry,madr,191.0,731,501,924,2339,[details],[edit],madry,191,Argentina,Puerto Madryn,SEPO40,335665D2,4.9,08:49,10',15',[open]
SSC-maer,Marmara Ereglisi,Turkey,40.97,27.97,maer,,,,2010,2028,2175,[details],[edit],maer,,Turkey,Marmara Ereglisi,ftp,,1.37,2017-09-14 15:31,7d,2',[open]
SSC-magi,Magueyes Island,United States,17.98,-67.05,"magi, magi2",magi,,246,759,1893,2381,[details],[edit],magi,,USA,Magueyes Island,web,3364E042,0.24,2017-09-20 12:28,21h,6',[open]
SSC-magi,Magueyes Island,United States,17.98,-67.05,"magi, magi2",magi,,246,759,1893,2381,[details],[edit],magi2,,USA,Magueyes Island,SXXX03,3364E042,-2.43,2017-09-20 12:27,21h,6',[open]
SSC-maho,Mahon,Spain,39.89,4.27,maho,,,,2062,,,[details],[edit],maho,,Spain,Mahon,ftp,,0.17,08:48,11',4',[open]
SSC-mais,Marion Island,South Africa,-46.87,37.87,"mais, mais2",mais,20.0,,,2016,1980,[details],[edit],mais,20,South-Africa,Marion Island,SXXX32,16AF741C,0.01,08:17,42',15',[open]
SSC-mais,Marion Island,South Africa,-46.87,37.87,"mais, mais2",mais,20.0,,,2016,1980,[details],[edit],mais2,,South-Africa,Marion Island,ftp,,8.36,07:23,2h,8h,[open]
SSC-maji,Majis,Oman,24.52,56.61,maji,maji,,,,,,[details],[edit],maji,,Oman,Majis,SXOM33,180D62C6,0.13,08:48,11',6',[open]
SSC-mala,Malakal,Palau,7.33,134.45,mala,mala,120.0,7,"1252, 338",2628,2627,[details],[edit],mala,120,Palau Islands,Malakal,SWPA40,xxxxxxxx,3.44,08:50,9',6',[open]
SSC-male,Male,Maldives,4.19,73.53,male,male,28.0,108,"1743, 1744, 1753","2985, 3536, 729",1978,[details],[edit],male,28,Maldive Islands,Male,SXXX32,16289262,2.88,08:45,14',15',[open]
SSC-mali,Malin Head Peninsular,Ireland,55.37,-7.33,mali,mali,239.0,834,916,2065,2435,[details],[edit],mali,239,Ireland,Malin Head Peninsular,ftp,,1.27,08:00,59',1h,[open]
SSC-malo,Måløy,Norway,61.93,5.12,malo,,,802,486,,,[details],[edit],malo,,Norway,Måløy,web,,1.55,10:20,-81',1h,[open]
SSC-malp,Malpelo,Colombia,4.0,-81.6,"malp, malp2",malp,,,,,,[details],[edit],malp,,Colombia,Malpelo,ftp,,4.36,08:24,35',15',[open]
SSC-malp,Malpelo,Colombia,4.0,-81.6,"malp, malp2",malp,,,,,,[details],[edit],malp2,,Colombia,Malpelo,SXCO41,15AAB424,0.43,08:42,17',5',[open]
SSC-mani,Manila,Philippines,14.58,120.97,mani,mani,73.0,370,145,"3064, 3238, 3591, 815",1979,[details],[edit],mani,73,Philippines,Manila,SWPH40,xxxxxxxx,1.87,08:46,13',6',[open]
SSC-mari,Marin,Spain,42.41,-8.69,mari,,,,2181,,,[details],[edit],mari,,Spain,Marin,ftp,,0.52,08:48,11',4',[open]
SSC-marm,Marmagao,India,15.42,73.8,marm,,281.0,,1249,2066,2437,[details],[edit],marm,281,India,Marmagao,ftp,43195,1.31,2017-09-20 14:28,19h,10',[open]
SSC-mars,Marseille,France,43.29,5.36,mars,,205.0,824,61,"3193, 735",1802,[details],[edit],mars,205,France,Marseille,ftp,,0.52,08:47,11',5',[open]
SSC-marsh,Majuro,Marshall Islands,7.11,171.37,marsh,majb,112.0,5,"1217, 1228, 1838",2055,"2117, 2768",[details],[edit],marsh,112,Marshall Islands,Majuro,SZPA01,67680,0.87,08:53,6',3',[open]
SSC-masi,Masirah,Oman,20.68,58.87,masi,masi,,113,1887,,,[details],[edit],masi,,Oman,Masirah,SXXX33,16288114,2.83,08:49,10',6',[open]
SSC-mata,Matarani,Peru,-17.0,-72.12,mata,mata,,94,"2188, 458",,,[details],[edit],mata,,Perú,Matarani,SEPO40,354176C2,4.69,08:50,9',5',[open]
SSC-maya,Mayaguez,Puerto Rico,18.22,-67.16,maya,maya,,,,"3115, 3116",3114,[details],[edit],maya,,Puerto Rico,Mayaguez,SXXX03,336633DE,-2.17,2017-09-20 19:25,14h,6',[open]
SSC-maza,Mazatlan,Mexico,23.18,-106.42,maza,maza,,673,712,,,[details],[edit],maza,,Mexico,Mazatlan,ftp,,2.9,2017-09-19 14:03,2d,10',[open]
SSC-mdic,Marina Di Campo,Italy,42.74,10.24,MC41,,,,2140,3438,3437,[details],[edit],MC41,,Italy,Marina Di Campo,web,,0.13,08:43,16',5',[open]
SSC-meji,Mejillones,Chile,-23.1,-70.45,"meji, meji2",meji,,,,,,[details],[edit],meji,,Chile,Mejillones,SXCH40,01032040,3.28,08:45,14',5',[open]
SSC-meji,Mejillones,Chile,-23.1,-70.45,"meji, meji2",meji,,,,,,[details],[edit],meji2,,Chile,Mejillones,web,,3.19,08:49,10',5',[open]
SSC-meli,Melilla,Spain,35.29,-2.93,meli,,,,2057,3105,3104,[details],[edit],meli,,Spain,Melilla,ftp,,0.24,08:48,11',4',[open]
SSC-mera,Mera,Japan,34.55,139.49,mera,mera,86.0,352,359,801,2313,[details],[edit],mera,86,Japan,Mera,SWJP40,MERA,2.65,08:39,20',10',[open]
SSC-mess,Messina,Italy,38.2,15.56,ME13,,,,"115, 2081",3441,"3439, 3440",[details],[edit],ME13,,Italy,Messina,web,,0.05,08:50,9',5',[open]
SSC-mhav,Milford Haven,United Kingdom,51.71,-5.05,mhav,,,,"1700, 66",,,[details],[edit],mhav,,UK,Milford Haven,ftp,,5.85,08:30,29',15',[open]
SSC-mill,Millport,United Kingdom,55.75,-4.91,mill,,,,755,,,[details],[edit],mill,,UK,Millport,ftp,,1.57,08:30,29',15',[open]
SSC-mimz,Mimizan,France,44.21,-1.3,"mimz, mimz2",,,,,"3480, 3481",3479,[details],[edit],mimz,,France,Mimizan,ftp,,2.19,08:47,11',5',[open]
SSC-mini,Minicoy,India,8.28,73.05,mini,mini,29.0,153,1050,2068,2439,[details],[edit],mini,29,India,Minicoy,ftp,43370,1.1,2017-08-06 20:48,46d,10',[open]
SSC-mlga,Malaga,Spain,36.71,-4.42,mal3,,,,"1810, 496","1924, 3459","2183, 2396",[details],[edit],mal3,,Spain,Malaga,ftp,,0.43,08:47,12',4',[open]
SSC-mnkt,Manakau,New Zealand,-37.05,174.51,mnkt,mnkt,,,,,,[details],[edit],mnkt,,New Zealand,Manakau,SZNZ01,MNKT,3.56,08:46,13',3',[open]
SSC-momb,Mombasa,Kenya,-4.07,39.65,momb,momb,8.0,101,"2183, 370",,"2794, 3583",[details],[edit],momb,8,Kenya,Mombasa,SXXX33,22ADF72A,3.36,08:45,14',15',[open]
SSC-mona,Mona Island,United States,18.09,-67.94,"mona, mona2",mona,,267,2122,3017,3016,[details],[edit],mona,,USA,Mona Island,web,3365E2B8,0.57,08:49,10',6',[open]
SSC-mona,Mona Island,United States,18.09,-67.94,"mona, mona2",mona,,267,2122,3017,3016,[details],[edit],mona2,,USA,Mona Island,SXXX03,3365E2B8,-2.29,08:49,10',6',[open]
SSC-moul,Moulmein,Myanmar,16.48,97.62,moul,moul,141.0,906,747,,2845,[details],[edit],moul,141,Myanmar,Moulmein,SZBM40,0650AFA4,6.68,08:48,11',6',[open]
SSC-mrig,Marigot,Dominica,15.55,-61.28,mrig,,,,,,,[details],[edit],mrig,,Dominica island,Marigot,SODO10,D6700DEA,,2017-08-12 01:11,40d,5',[open]
SSC-mumb,Mumbles,United Kingdom,51.57,-3.98,mumb,,,,1732,,,[details],[edit],mumb,,UK,Mumbles,ftp,,8.29,08:30,29',15',[open]
SSC-musc,Muscat,Oman,23.63,58.57,"mus2, musc","mus2, musc",,110,"1716, 2185",,,[details],[edit],musc,,Oman,Muscat,SXXX32,262D700E,5.74,08:45,14',15',[open]
SSC-nagas,Nagasaki,Japan,32.44,129.52,naga,naga,83.0,362,"1100, 141",805,2105,[details],[edit],naga,83,Japan,Nagasaki,SWJP40,NAGASAKI,2.37,08:39,20',10',[open]
SSC-naha,Naha,Japan,26.22,127.67,naha,naha,81.0,355,1151,807,2111,[details],[edit],naha,81,Japan,Naha,SWJP40,NAHA,2.72,08:39,20',10',[open]
SSC-naho,Nahodka,Russia,42.78,132.86,naho,naho,,,,,,[details],[edit],naho,,Russia,Nahodka,web,,1.04,08:44,15',10',[open]
SSC-nain,Nain,Canada,56.55,-61.68,nain,,224.0,833,1029,748,2101,[details],[edit],nain,224,Canada,Nain,ftp,,0.61,04:03,5h,6h,[open]
SSC-nanc,Nancowry,India,8.05,93.55,nanc,nanc,,,2222,,,[details],[edit],nanc,,India,Nancowry,ftp,43383,0.3,08:20,39',10',[open]
SSC-napo,Napoli,Italy,40.84,14.27,NA23,napo,,,"105, 129, 1531, 1535, 1611, 2092",3471,"3468, 3469, 3470",[details],[edit],NA23,,Italy,Napoli,web,,-999,2017-07-24 11:09,59d,5',[open]
SSC-napt,Port Napier,New Zealand,-39.48,176.92,napt,napt,,668,1750,,,[details],[edit],napt,,New Zealand,Port Napier,SZNZ01,NAPT,3.23,08:47,12',3',[open]
SSC-naur,Nauru,Nauru,-0.52,166.91,"naur, nauu",nauu,114.0,4,"1374, 1844",750,"2134, 2773",[details],[edit],nauu,,Nauru,Nauru,SZPS01,67640,1.18,08:53,6',6',[open]
SSC-nehu,Nehuentue,Chile,-38.74,-73.43,"ntue, ntue2",,,,,,,[details],[edit],ntue2,,,Nehuentue,web,,1.23,08:50,9',5',[open]
SSC-neri,Newport,United States,41.5,-71.33,,neri,290.0,253,351,761,2361,[details],[edit],npor,,UK,Newport,ftp,,11.87,08:30,29',15',[open]
SSC-npor,Newport,United Kingdom,51.55,-2.99,npor,,,,1832,,,[details],[edit],npor,,UK,Newport,ftp,,11.87,08:30,29',15',[open]
SSC-neve,Nevel'sk,Russia,46.68,141.86,neve,,,,250,,,[details],[edit],neve,,Russia,Nevel'sk,web,,2.34,2016-12-06 03:44,289d,10',[open]
SSC-nhav,Newhaven,United Kingdom,50.78,0.06,nhav,,,,1548,,,[details],[edit],nhav,,UK,Newhaven,ftp,,2.98,08:30,29',15',[open]
SSC-nice,Nice,France,43.7,7.29,"nice, nice2",nice,,,1468,"2014, 3542",1813,[details],[edit],nice,,France,Nice,ftp,,0.58,08:45,13',5',[open]
SSC-nksk,Nikol'skoe,Russia,55.2,166.02,nksk,nksk,,,,,,[details],[edit],nksk,,Russia,Nikol'skoe,web,,1.29,08:44,15',10',[open]
SSC-noct,Nouakchott,Mauritania,18.1,-15.95,noct,noct,,806,2036,,,[details],[edit],noct,,Mauritania,Nouakchott,SXXX33,366E2324,10.2,08:30,29',15',[open]
SSC-nome,Nome,United States,64.5,-165.43,"nome, nome2",nome,74.0,595,1800,2708,2707,[details],[edit],nome,74,USA,Nome,web,3360809E,-0.23,08:47,12',6',[open]
SSC-nome,Nome,United States,64.5,-165.43,"nome, nome2",nome,74.0,595,1800,2708,2707,[details],[edit],nome2,74,USA,Nome,SXXX03,3360809E,-4.88,08:46,13',6',[open]
SSC-noti,Noto,Italy,36.88,14.99,,,,,,758,,[details],[edit],noto,,Japan,Noto,SWJP40,NOTO,2.5,08:39,20',10',[open]
SSC-noto,Noto,Japan,37.5,137.16,noto,noto,,,,,,[details],[edit],noto,,Japan,Noto,SWJP40,NOTO,2.5,08:39,20',10',[open]
SSC-noua,Nouadhibou,Mauritania,20.81,-17.04,noua,,,,,,,[details],[edit],noua,,Mauritania,Nouadhibou,ftp,18ABD7D0,0.62,2016-07-14 03:50,434d,1h,[open]
SSC-nshi,North Shields,United Kingdom,55.01,-1.44,nshi,,,,"533, 95","2427, 764",2186,[details],[edit],nshi,,UK,North Shields,ftp,,1.27,08:30,29',15',[open]
SSC-nyal,Ny Ålesund,Norway,78.93,11.95,nyal,,345.0,823,1421,"3012, 766, 767",2139,[details],[edit],nyal,345,Norway,Ny Ålesund,web,,0.14,10:20,-81',1h,[open]
SSC-ofun,Ofunato,Japan,39.0,141.75,ofun,ofun,87.0,351,"1140, 1364",800,"2131, 2765",[details],[edit],ofun,87,Japan,Ofunato,SWJP40,OFUNATO,2.19,08:39,20',10',[open]
SSC-omae,Omaezaki,Japan,34.6,138.23,omae,omae,,,"1141, 1263",,,[details],[edit],omae,,Japan,Omaezaki,SWJP40,OMAEZAKI,2.91,08:39,20',10',[open]
SSC-oran,Oranjestad,Aruba,12.52,-70.03,oran,oran,,,,,,[details],[edit],oran,,Aruba,Oranjestad,SONU10,AA300044,-999,08:46,13',5',[open]
SSC-orma,Ormara,Pakistan,25.2,64.68,orma,orma,,,,,,[details],[edit],orma,,Pakistan,Ormara,SXXX32,262AD2C2,-999,08:49,10',15',[open]
SSC-orta,Ortona,Italy,42.36,14.41,OR24,,,,"2097, 972",,,[details],[edit],OR24,,Italy,Ortona,web,,-0.03,08:45,14',5',[open]
SSC-oste,Ostend,Belgium,51.23,2.92,oste,,,,413,2988,2987,[details],[edit],oste,,Belgium,Ostend,ftp,,0.86,08:35,24',15',[open]
SSC-otat,Dunedin,New Zealand,-45.81,170.63,otat,otat,,669,"136, 1643, 252","2508, 771, 921","2337, 2742, 2746",[details],[edit],otat,,New Zealand,Dunedin,SZNZ01,OTAT,3.78,08:47,12',3',[open]
SSC-otro,Otranto,Italy,40.15,18.5,OT15,otra,,,"2096, 990",3444,"3442, 3443",[details],[edit],OT15,,Italy,Otranto,web,,-0.22,08:53,6',5',[open]
SSC-pada,Padang,Indonesia,-0.95,100.37,"pada, padn","pada, padn",45.0,107,"1686, 2193, 274","2944, 3100",2810,[details],[edit],pada,45,Indonesia,Padang,SZID50,06510374,5.94,08:40,19',6',[open]
SSC-pago,Pago Pago,Algeria,-14.28,-170.69,"pago, pago2, pagx","pago, pagx",144.0,56,539,631,2352,[details],[edit],pago,144,Samoa,Pago Pago,web,336015FC,0.67,08:51,8',6',[open]
SSC-pago,Pago Pago,Algeria,-14.28,-170.69,"pago, pago2, pagx","pago, pagx",144.0,56,539,631,2352,[details],[edit],pagx,144,Samoa,Pago Pago,SXXX03,336312F2,-2.87,08:50,9',6',[open]
SSC-palb,Port Alberni,Canada,47.71,-121.53,palb,ptal,,,527,,,[details],[edit],palb,,Canada,Port Alberni,SXAK50,15C3B04A,3.25,08:51,8',5',[open]
SSC-pana,Pangandaran,Indonesia,-7.75,108.5,pana,pana,,,,2962,2964,[details],[edit],pana,,Indonesia,Pangandaran,SXXX33,22F96330,-9.09,08:42,17',15',[open]
SSC-pant,Pantelleria,Italy,36.83,11.94,pant,pant,,,,,,[details],[edit],pant,,Italy,Pantelleria,bgan,PANT,-0.21,08:38,21',1',[open]
SSC-papho,Paphos,Cyprus,34.76,32.41,papho,,,,2159,,,[details],[edit],papho,,Cyprus,Paphos,ftp,,-999,2017-05-30 07:11,114d,1',[open]
SSC-papo,Paposo,Chile,-25.01,-70.47,"papo, papo2",papo,,,,,,[details],[edit],papo,,Chile,Paposo,SXCH40,ADC285DE,3.26,08:47,12',5',[open]
SSC-papo,Paposo,Chile,-25.01,-70.47,"papo, papo2",papo,,,,,,[details],[edit],papo2,,Chile,Paposo,web,,3.19,08:50,8',5',[open]
SSC-pata,Patache,Chile,-20.8,-70.19,"pata, pata2",pata,,,,,,[details],[edit],pata,,Chile,Patache,SXCH40,ADC22526,3.28,08:41,18',5',[open]
SSC-pata,Patache,Chile,-20.8,-70.19,"pata, pata2",pata,,,,,,[details],[edit],pata2,,Chile,Patache,web,,3.22,08:49,9',5',[open]
SSC-pedn,Puerto Eden,Chile,-49.13,-74.42,"pedn, pedn2",pedn,,,,,,[details],[edit],pedn,,Chile,Puerto Eden,SXCH40,1400B282,4.87,08:39,20',15',[open]
SSC-pedn,Puerto Eden,Chile,-49.13,-74.42,"pedn, pedn2",pedn,,,,,,[details],[edit],pedn2,,Chile,Puerto Eden,web,,4.83,08:48,11',15',[open]
SSC-peir,Peiraias,Greece,37.93,23.62,peir,,,,374,,,[details],[edit],peir,,Greece,Peiraias,ftp,,0.72,08:45,14',3',[open]
SSC-peit,Porto empedocle,Italy,37.29,13.52,"PE09, PE21",,,,2083,,,[details],[edit],PE09,,Italy,Porto empedocle,web,,-0.12,08:48,11',5',[open]
SSC-penr,Penrhyn,Cook Islands,-9.0,-158.05,penr,penr,143.0,24,1450,,2846,[details],[edit],penr,143,Cook Islands,Penrhyn,SEPO40,3541A0AA,5.34,08:51,8',5',[open]
SSC-petr,Petropavlovsk,Russia,53.02,158.65,petr,petr,93.0,,824,"2499, 813",2316,[details],[edit],petr,93,Russia,Petropavlovsk,web,,3.2,08:44,15',10',[open]
SSC-pisa,Pisagua,Chile,-19.6,-70.21,"pisa, pisa2",pisa,,,,,,[details],[edit],pisa,,Chile,Pisagua,SXCH40,ADC17254,3.93,08:51,8',5',[open]
SSC-pisa,Pisagua,Chile,-19.6,-70.21,"pisa, pisa2",pisa,,,,,,[details],[edit],pisa2,,Chile,Pisagua,web,,3.85,08:49,9',5',[open]
SSC-pkem,Port Kembla,Australia,-34.47,150.91,pkem,pkem,,,"831, 850",2060,2179,[details],[edit],pkem,,Australia,Port Kembla,SZAU01,60420,1.28,08:50,9',3',[open]
SSC-plma,Palmeira,Cape Verde,16.76,-22.98,palm1,palm,329.0,235,1914,"3597, 851",1987,[details],[edit],palm1,329,Cabo Verde,Palmeira,SXXX33,26D6F7A6,6.73,08:45,14',15',[open]
SSC-plmy,Palmyra Island,United States,5.89,-162.09,plmy,plmy,,43,532,,,[details],[edit],plmy,,USA,Palmyra Island,SEPO40,3541E3A0,6.37,08:43,16',5',[open]
SSC-plnu,Palinuro,Italy,40.03,15.28,PL14,,,,2082,3581,3580,[details],[edit],PL14,,Italy,Palinuro,web,,0.11,08:50,9',5',[open]
SSC-plrm,Palermo,Italy,38.12,13.37,PA07,,,,"107, 2093",,,[details],[edit],PA07,,Italy,Palermo,web,,-999,2017-07-14 00:08,69d,5',[open]
SSC-plup,Pulau Perhentian,Malaysia,5.93,102.7,ms004,,,,,,,[details],[edit],ms004,,Malaysia,Pulau Perhentian,SZMS01,MS004,1.54,2017-08-30 14:35,22d,1',[open]
SSC-pluz,Puerto de la Luz,Spain,28.13,-15.41,"lasp, pluz",lasp,251.0,217,"1311, 1802, 565, 590",941,"2197, 2754, 2779",[details],[edit],pluz,251,Spain,Puerto de la Luz,web,,0.91,2017-09-17 05:59,4d,1d,[open]
SSC-plym,Plymouth,United Kingdom,50.37,-4.19,plym,,,,982,3259,3258,[details],[edit],plym,,UK,Plymouth,ftp,,4.63,08:30,29',15',[open]
SSC-pmel,Puerto Melinka,Chile,-43.9,-73.75,"pmel, pmel2",pmel,,,,,,[details],[edit],pmel,,Chile,Puerto Melinka,SXCH40,14000FDE,5.01,08:44,15',5',[open]
SSC-pmel,Puerto Melinka,Chile,-43.9,-73.75,"pmel, pmel2",pmel,,,,,,[details],[edit],pmel2,,Chile,Puerto Melinka,web,,4.44,2017-04-06 19:48,168d,5',[open]
SSC-pmon,Puerto Montt,Chile,-41.48,-72.97,"pmon, pmon2",pmon,178.0,684,472,,2858,[details],[edit],pmon,178,Chile,Puerto Montt,SXCH40,140642C8,7.13,08:49,10',15',[open]
SSC-pmon,Puerto Montt,Chile,-41.48,-72.97,"pmon, pmon2",pmon,178.0,684,472,,2858,[details],[edit],pmon2,178,Chile,Puerto Montt,web,,6.65,08:47,12',15',[open]
SSC-pmur,PtMurat,Australia,-21.82,114.19,pmur,pmur,,,,,,[details],[edit],pmur,,Australia,PtMurat,SZAU01,62430,0.78,08:50,9',10',[open]
SSC-pnfl,Pensacola,United States,30.4,-87.21,"pnfl, pnfl2",pnfl,288.0,762,246,1887,2379,[details],[edit],pnfl,288,USA,Pensacola,web,33616196,0.38,08:47,12',5',[open]
SSC-pnfl,Pensacola,United States,30.4,-87.21,"pnfl, pnfl2",pnfl,288.0,762,246,1887,2379,[details],[edit],pnfl2,288,USA,Pensacola,SXXX03,33616196,-4.06,08:40,19',5',[open]
SSC-ponz,Ponza,Italy,40.9,12.97,PO40,,,,2141,,,[details],[edit],PO40,,Italy,Ponza,web,,-999,2017-07-07 04:44,76d,5',[open]
SSC-porl,Portland,Australia,-38.34,141.61,porl,porl,55.0,129,"1547, 1556",2061,2148,[details],[edit],porl,55,Australia,Portland,SZAU01,61410,0.38,08:50,9',3',[open]
SSC-ptme,Portland,United States,43.66,-70.25,ptme,ptme,,252,183,,,[details],[edit],porl,55,Australia,Portland,SZAU01,61410,0.38,08:50,9',3',[open]
SSC-poro,Poronajsk,Russia,49.22,143.09,poro,poro,,,,,,[details],[edit],poro,,Russia,Poronajsk,web,,1.52,2016-06-22 12:29,456d,10',[open]
SSC-porp,Portpatrick,United Kingdom,54.84,-5.12,porp,,,,1215,,,[details],[edit],porp,,UK,Portpatrick,ftp,,1.67,08:30,29',15',[open]
SSC-portf,Port Hardy,Canada,50.72,-127.48,phbc,phbc,,,1071,3207,3206,[details],[edit],phbc,,Canada,Port Hardy,SXAK50,CD4038A0,-999,08:53,6',5',[open]
SSC-posi,Pos'et,Russia,42.65,130.8,posi,posi,,,626,,,[details],[edit],posi,,Russia,Pos'et,web,,1.99,08:44,15',10',[open]
SSC-ppcp,Portopalo di Capo Passero,Italy,36.67,15.12,ppcp,ppcp,,,,,,[details],[edit],ppcp,,Italy,Portopalo di Capo Passero,bgan,PPCP,0.07,08:38,21',1',[open]
SSC-prai,Praia,Cape Verde,14.92,-23.5,prai,,,222,"1626, 1865",,,[details],[edit],prai,,Cabo Verde,Praia,ftp,18F7C178,0.78,2016-07-14 03:45,434d,1h,[open]
SSC-prba,Puerto Barrios,Guatemala,15.69,-88.62,prba,prba,,,1080,,,[details],[edit],prba,,Guatemala,Puerto Barrios,SOGU40,96500162,-999,2017-05-18 20:33,126d,5',[open]
SSC-prec,Le Prêcheur,France,14.81,-61.23,prec,prec,,,,,,[details],[edit],prec,,Martinique,Le Prêcheur,SOMR10,12A011E0,0.01,08:47,12',5',[open]
SSC-preo,Preobrazheniye,Russia,42.91,133.92,preo,preo,,,465,,,[details],[edit],preo,,Russia,Preobrazheniye,web,,2.32,08:45,14',10',[open]
SSC-prig,Prigi,Indonesia,-8.28,111.73,"prgi, prig","prgi, prig",,125,2197,,,[details],[edit],prig,,Indonesia,Prigi,SZID48,0650F10A,5.32,08:48,11',6',[open]
SSC-prin,Prince Rupert,Canada,54.32,-130.32,prin,,155.0,540,167,2020,2248,[details],[edit],prin,155,Canada,Prince Rupert,ftp,,5.45,2017-09-20 19:41,13h,6h,[open]
SSC-prus,Portrush,United Kingdom,55.21,-6.66,prus,,,,1867,,,[details],[edit],prus,,UK,Portrush,ftp,,1.92,08:30,29',15',[open]
SSC-psdn,Puerto Sandino,Nicaragua,12.2,-86.76,psdn,,,,,,,[details],[edit],psdn,,Nicaragua,Puerto Sandino,SXXX50,0500F7AE,24.26,08:22,37',1h,[open]
SSC-pslu,Port San Luis,United States,35.17,-120.75,"pslu, pslu2",pslu,,565,508,,,[details],[edit],pslu,,USA,Port San Luis,web,3362C660,1.06,08:49,10',6',[open]
SSC-pslu,Port San Luis,United States,35.17,-120.75,"pslu, pslu2",pslu,,565,508,,,[details],[edit],pslu2,,USA,Port San Luis,SXXX03,3362C660,-4.46,08:48,11',6',[open]
SSC-ptan,Puerto Angel,Mexico,15.67,-96.49,"ptan, ptan2",ptan,164.0,672,1015,2960,2852,[details],[edit],ptan,,Mexico,Puerto Angel,SOMX10,0100F126,5.59,07:56,1h,15',[open]
SSC-ptan,Puerto Angel,Mexico,15.67,-96.49,"ptan, ptan2",ptan,164.0,672,1015,2960,2852,[details],[edit],ptan2,,Mexico,Puerto Angel,ftp,,2.68,08:33,26',15',[open]
SSC-ptar,Punta Arenas,Chile,-53.12,-70.86,"ptar, ptar2",ptar,,,473,810,2283,[details],[edit],ptar,,Chile,Punta Arenas,SXCH40,140064EA,4.37,08:42,17',15',[open]
SSC-ptar,Punta Arenas,Chile,-53.12,-70.86,"ptar, ptar2",ptar,,,473,810,2283,[details],[edit],ptar2,,Chile,Punta Arenas,web,,4.67,08:52,7',15',[open]
SSC-ptbl,Port Blair,India,11.68,92.77,ptbl,ptbl,38.0,908,206,"2070, 2665, 2732",2441,[details],[edit],ptbl,38,India,Port Blair,ftp,43332,1.94,08:20,39',10',[open]
SSC-ptca,Punta Cana,Dominican Republic,18.5,-68.38,ptca,pcan,,776,,3558,3557,[details],[edit],ptca,,Dominican Republic,Punta Cana,SEPO40,354041A2,5.77,08:52,7',5',[open]
SSC-ptco,Puerto Cortes,Honduras,15.83,-87.95,pcor,pcor,,780,557,,,[details],[edit],pcor,,Honduras,Puerto Cortes,SOHO10,50C44664,9.28,08:00,59',1h,[open]
SSC-ptfe,Port Ferréol,France,43.36,6.72,"ptfe, ptfe2",ptfe,,,2233,,3164,[details],[edit],ptfe,,France,Port Ferréol,ftp,,0.58,08:47,11',5',[open]
SSC-ptis,Port Isaac,United Kingdom,50.59,-4.83,ptis,,,,,,,[details],[edit],ptis,,UK,Port Isaac,web,,0.37,08:57,1',0.1666',[open]
SSC-ptln,Port-La-Nouvelle,France,43.01,3.04,ptln,,,,,,3383,[details],[edit],ptln,,France,Port-La-Nouvelle,ftp,,0.58,08:47,11',5',[open]
SSC-ptma,Portomaso,Malta,35.92,14.49,ptma,,,,,,,[details],[edit],ptma,,Malta,Portomaso,ftp,,0.19,2017-08-24 01:04,28d,1',[open]
SSC-ptmd,"Portsmouth, Dominica",Dominica,15.56,-61.47,ptmd,,,,,,,[details],[edit],ptmd,,Dominica island,"Portsmouth, Dominica",SODO10,D6700338,2.67,2017-09-19 02:11,2d,5',[open]
SSC-ptmt,Portsmouth,United Kingdom,50.8,-1.11,ptmt,,,,350,2011,2342,[details],[edit],ptmt,,UK,Portsmouth,ftp,,2.44,08:30,29',15',[open]
SSC-ptpl,Puerto Plata,Dominican Republic,19.8,-70.7,ptpl,ppla,,777,577,3556,3555,[details],[edit],ptpl,,Dominican Republic,Puerto Plata,SEPO40,35407438,-0.38,08:47,12',5',[open]
SSC-ptro,Port Royal,Jamaica,17.93,-76.85,ptro,ptro,210.0,782,"2003, 744","2719, 3018",2718,[details],[edit],ptro,210,Jamaica,Port Royal,SOJM10,92405008,0.15,08:41,18',5',[open]
SSC-ptsc,Port St. Charles,Barbados,13.26,-59.64,ptsc,ptsc,,,888,,,[details],[edit],ptsc,,Barbados,Port St. Charles,SOBR10,BAB00078,0.01,08:51,8',5',[open]
SSC-ptsp,Port of Spain,Trinidad and Tobago,10.65,-61.52,ptsp,ptsp,203.0,248,415,3512,2870,[details],[edit],ptsp,203,Trinidad & Tobago,Port of Spain,SOTD10,A9C000B6,2.61,08:32,27',1h,[open]
SSC-ptts,Porto Torres,Italy,40.84,8.4,PT17,,,,2084,,,[details],[edit],PT17,,Italy,Porto Torres,web,,0.32,08:51,8',5',[open]
SSC-puert,Puerto Vallarta,Mexico,20.62,-105.25,puert,,,393,1360,1883,2130,[details],[edit],puert,,Mexico,Puerto Vallarta,ftp,,0.83,08:33,26',15',[open]
SSC-pumo,Puerto Morelos,Mexico,21.37,-86.75,"pumo, pumo2","pum2, pumo",,,,"3265, 3544",3543,[details],[edit],pumo2,,Mexico,Puerto Morelos,SOMX10,010F1446,-0.96,08:51,8',5',[open]
SSC-puyt,Puysegur Welcome Bay,New Zealand,-46.08,166.59,puyt,puyt,,,,,,[details],[edit],puyt,,New Zealand,Puysegur Welcome Bay,SZNZ01,PUYT,5.95,08:47,12',3',[open]
SSC-pwil,Puerto Williams,Chile,-54.93,-67.61,"pwil, pwil2",pwil,,287,1122,,,[details],[edit],pwil,,Chile,Puerto Williams,SXCH40,ADC147CE,4.77,08:48,11',15',[open]
SSC-pwil,Puerto Williams,Chile,-54.93,-67.61,"pwil, pwil2",pwil,,287,1122,,,[details],[edit],pwil2,,Chile,Puerto Williams,web,,4.93,08:52,7',15',[open]
SSC-qing,Qinglan,China,19.57,110.82,qing,qing,,,,,,[details],[edit],qing,,China,Qinglan,SZCI01,11742,0.81,08:46,13',5',[open]
SSC-quar,Quarry Bay,Hong Kong,22.28,114.22,quar,quar,77.0,329,"1674, 1693, 1891, 333","2089, 3214","2451, 2747, 2784",[details],[edit],quar,77,Hong Kong - China,Quarry Bay,SEHK40,QUARYBAY,-999,08:45,14',5',[open]
SSC-quel,Queule,Chile,-39.4,-73.21,"quel, quel2",quel,,,,,,[details],[edit],quel,,Chile,Queule,SXCH40,ADC1E736,2.93,08:47,12',5',[open]
SSC-quel,Queule,Chile,-39.4,-73.21,"quel, quel2",quel,,,,,,[details],[edit],quel2,,Chile,Queule,web,,2.93,08:50,8',5',[open]
SSC-quepo,Quepos,Costa Rica,9.4,-84.17,quepo,quep,167.0,87,"2189, 844",,2854,[details],[edit],quepo,167,Costa Rica,Quepos,SEPO40,3540A250,6.53,08:40,19',5',[open]
SSC-quir,Quiriquina,Chile,-36.64,-73.06,"quir, quir2",quir,,,,,,[details],[edit],quir,,Chile,Quiriquina,SXCH40,ADC2755A,3.84,08:51,8',5',[open]
SSC-quir,Quiriquina,Chile,-36.64,-73.06,"quir, quir2",quir,,,,,,[details],[edit],quir2,,Chile,Quiriquina,web,,3.77,08:49,9',5',[open]
SSC-qura,Qurayat,Oman,23.26,58.93,qura,qura,,,,,,[details],[edit],qura,,Oman,Qurayat,SXOM33,1842C770,0.14,08:49,10',6',[open]
SSC-raro,Rarotonga,Cook Islands,-21.2,-159.78,"raro, raro2","rarb, raro",139.0,23,"1453, 1843",655,"2144, 2775",[details],[edit],raro,139,Cook Islands,Rarotonga,SZPS01,65980,1.03,08:53,6',3',[open]
SSC-rbct,Raoul Island Boat Cove,New Zealand,-29.28,-177.89,rbct,rbct,,,,,,[details],[edit],rbct,,New Zealand,Raoul Island Boat Cove,SZNZ01,RBCT,6.65,08:47,12',3',[open]
SSC-rcit,Reggio Calabria,Italy,38.12,15.65,RC09,,,,"2142, 670",3150,"3148, 3149",[details],[edit],RC09,,Italy,Reggio Calabria,web,,-0.25,08:52,7',5',[open]
SSC-reyk,Reykjavik,Iceland,64.15,-21.93,reyk,reyk,229.0,288,638,828,1984,[details],[edit],reyk,229,Iceland,Reykjavik,ftp,,3.63,08:48,11',1h,[open]
SSC-rfrt,Raoul Island Fishing Rock,New Zealand,-29.25,-177.9,rfrt,rfrt,,,,,,[details],[edit],rfrt,,New Zealand,Raoul Island Fishing Rock,SZNZ01,RFRT,4.21,08:46,13',3',[open]
SSC-rorv,Rørvik,Norway,64.87,11.25,rorv,,234.0,803,1241,3561,2879,[details],[edit],rorv,234,Norway,Rørvik,web,,1.35,10:20,-81',1h,[open]
SSC-rosc,Roscoff,France,48.72,-3.97,"rosc, rosc2",rosc,,,1347,1933,1865,[details],[edit],rosc,,France,Roscoff,ftp,,5.59,08:47,12',5',[open]
SSC-rose,Roseau,Dominican Republic,15.31,-61.39,rose,rose,,786,,,,[details],[edit],rose,,Dominica island,Roseau,SEPO40,354097CA,-999,2017-09-19 01:23,2d,5',[open]
SSC-ross,Rosslyn Bay,Australia,-23.16,150.79,ross,ross,,330,1760,2980,2979,[details],[edit],ross,,Australia,Rosslyn Bay,SZAU01,59670,2.41,08:50,9',3',[open]
SSC-roth,Rothera,United Kingdom,-67.57,-68.13,rothe,roth,342.0,832,1931,2007,1991,[details],[edit],rothe,342,Antarctica,Rothera,SEMS40,6B000D98,2.34,08:38,21',15',[open]
SSC-rous,Ile Rousse,France,42.64,8.94,"rous, rous2",,,,,,3175,[details],[edit],rous,,France,Ile Rousse,ftp,,0.64,08:47,11',5',[open]
SSC-rtas,Roatan Island Punta Gorda Harbor,Honduras,16.35,-86.54,rtas,rtas,,,,,,[details],[edit],rtas,,Honduras,Roatan Island Punta Gorda Harbor,SOHO10,50CF45CC,0.96,08:00,59',1h,[open]
SSC-rudn,Rudnaya Pristan,Russia,44.35,135.8,rudn,rudn,,,452,,,[details],[edit],rudn,,Russia,Rudnaya Pristan,web,,3.36,08:45,14',10',[open]
SSC-saba,Sabang,Indonesia,5.83,95.33,"sab2, saba","sab2, saba",347.0,123,2195,,2904,[details],[edit],saba,347,Indonesia,Sabang,SZID45,0650B200,1.24,08:50,9',6',[open]
SSC-sado,Sado,Japan,38.32,138.52,sado,sado,,,,,,[details],[edit],sado,,Japan,Sado,SWJP40,SADO,2.23,08:39,20',10',[open]
SSC-sagr,Sagres,Portugal,37.01,-8.93,sagr,sagr,,,,,,[details],[edit],sagr,,Portugal,Sagres,bgan,SAGR,-1.49,08:38,21',1',[open]
SSC-sagu,Sagunto,Spain,39.63,-0.21,sagu,,,,2059,,,[details],[edit],sagu,,Spain,Sagunto,ftp,,0,08:48,11',4',[open]
SSC-said,Saidia Marina,Morocco,35.11,-2.29,said,said,,,,,,[details],[edit],said,,Morocco,Saidia Marina,bgan,SAID,0.3,2017-06-01 11:41,112d,1',[open]
SSC-saig,Saigo,Japan,36.2,133.33,saig,saig,,,1095,,,[details],[edit],saig,,Japan,Saigo,SWJP40,SAIGO,2.41,08:39,20',10',[open]
SSC-sain,Saint-Nazaire,France,47.26,-2.2,sain,,,,457,3424,1846,[details],[edit],sain,,France,Saint-Nazaire,ftp,,2.12,08:47,12',5',[open]
SSC-saip,Saipan,United States,15.23,145.74,saip,saip,118.0,28,1474,1873,2145,[details],[edit],saip,118,USA,Saipan,SWMY40,06506468,7.38,08:48,11',6',[open]
SSC-sala,Salalah,Oman,16.94,54.01,sala,sala,4.0,114,1754,,2791,[details],[edit],sala,4,Oman,Salalah,SXXX33,1605C096,1.98,08:45,14',6',[open]
SSC-salrn,Salerno,Italy,40.68,14.75,SA16,,,,2086,,,[details],[edit],SA16,,Italy,Salerno,web,,0.02,08:52,7',5',[open]
SSC-sama,Santa Marta,Colombia,11.24,-74.22,sama,sama,,738,,3071,,[details],[edit],sama,,Colombia,Santa Marta,SEPO40,35419530,6.4,08:50,9',5',[open]
SSC-sana,San Andres,Colombia,12.57,-81.7,sana,sana,,737,2116,,,[details],[edit],sana,,Colombia,San Andres,SEPO40,35418646,5.57,08:40,19',5',[open]
SSC-sanak,San Antonio,Argentina,-40.8,-64.87,,,,,178,,,[details],[edit],sano,,Chile,San Antonio,SXCH40,1401F372,3.96,08:50,9',5',[open]
SSC-sanak,San Antonio,Argentina,-40.8,-64.87,,,,,178,,,[details],[edit],sano2,,Chile,San Antonio,web,,3.91,08:55,3',5',[open]
SSC-sanf,San Felix,Chile,-26.26,-80.12,"sanf, sanf3",sanf,177.0,35,1751,,2857,[details],[edit],sanf,177,Chile,San Felix,SXCH40,ADC0A6C6,4.92,08:48,11',5',[open]
SSC-sanf,San Felix,Chile,-26.26,-80.12,"sanf, sanf3",sanf,177.0,35,1751,,2857,[details],[edit],sanf3,,Chile,San Felix,web,,4.87,08:47,11',5',[open]
SSC-sanj,San Juan,United States,18.46,-66.12,"sanj, sanj2",sanj,206.0,245,1001,"1900, 2662, 3406",2098,[details],[edit],sanj,206,USA,San Juan,web,335CA19E,0,08:48,11',6',[open]
SSC-sanj,San Juan,United States,18.46,-66.12,"sanj, sanj2",sanj,206.0,245,1001,"1900, 2662, 3406",2098,[details],[edit],sanj2,206,USA,San Juan,SXXX03,335CA19E,-2.99,08:41,18',6',[open]
SSC-sanju,San Juan,Peru,-15.37,-75.2,,,,96,"2187, 923",,,[details],[edit],sanj,206,USA,San Juan,web,335CA19E,0,08:48,11',6',[open]
SSC-sanju,San Juan,Peru,-15.37,-75.2,,,,96,"2187, 923",,,[details],[edit],sanj2,206,USA,San Juan,SXXX03,335CA19E,-2.99,08:41,18',6',[open]
SSC-sapz,Sapzurro,Colombia,8.66,-77.37,"sapz, sapz2",sapz,,,,,,[details],[edit],sapz,,Colombia,Sapzurro,ftp,,0.81,08:30,29',5',[open]
SSC-sapz,Sapzurro,Colombia,8.66,-77.37,"sapz, sapz2",sapz,,,,,,[details],[edit],sapz2,,Colombia,Sapzurro,SXCO41,15A045F2,0.8,08:49,10',5',[open]
SSC-sass,Sassnitz,Germany,54.51,13.64,sass,,,,397,833,2223,[details],[edit],sass,,Germany,Sassnitz,web,,5.26,08:51,8',5',[open]
SSC-saum,Saumlaki,Indonesia,-7.98,131.29,saum,saum,,420,,,,[details],[edit],saum,,Indonesia,Saumlaki,SZID41,06503414,5.9,08:50,9',6',[open]
SSC-sbea,South Beach,United States,44.63,-124.04,"sbea, sbea2",sbea,157.0,592,1196,"3524, 754",2362,[details],[edit],sbea,157,USA,South Beach,web,3368974E,2.73,08:46,13',6',[open]
SSC-sbea,South Beach,United States,44.63,-124.04,"sbea, sbea2",sbea,157.0,592,1196,"3524, 754",2362,[details],[edit],sbea2,157,USA,South Beach,SXXX03,3368974E,-3.14,08:45,14',6',[open]
SSC-scar,Scarborough,Trinidad and Tobago,11.17,-60.73,scar,scar,,,1979,,,[details],[edit],scar,,Trinidad & Tobago,Scarborough,SOTD10,A9C0352C,2.2,08:33,26',1h,[open]
SSC-scarl,Scarborough,United Kingdom,54.28,-0.38,,,,,946,,,[details],[edit],scar,,Trinidad & Tobago,Scarborough,SOTD10,A9C0352C,2.2,08:33,26',1h,[open]
SSC-scia,Sciacca,Italy,37.5,13.08,SC43,,,,"2047, 2224",,,[details],[edit],SC43,,Italy,Sciacca,web,,-0.12,08:51,8',5',[open]
SSC-sdom,Santo Domingo/p.San Andres,Dominican Republic,18.42,-69.63,sdom,sdrd,,,,,,[details],[edit],sdom,,Dominican Republic,Santo Domingo/p.San Andres,SXDR40,3341059E,-4.16,2017-06-24 13:29,89d,6',[open]
SSC-sdpr,Sandown Pier,United Kingdom,50.65,-1.15,sdpr,,,,,,,[details],[edit],sdpr,,UK,Sandown Pier,web,,0.43,08:57,2',0.1666',[open]
SSC-sema,Semarang,Indonesia,-6.95,110.42,sema,sema,,,281,,,[details],[edit],sema,,Indonesia,Semarang,SZID53,,1.75,08:47,12',15',[open]
SSC-sete,Sète,France,43.4,3.7,"sete, sete2",sete,,,958,1905,1847,[details],[edit],sete,,France,Sète,ftp,,0.47,08:47,11',5',[open]
SSC-setu,Setubal,Portugal,38.49,-8.93,setu,setu,,,1425,,,[details],[edit],setu,,Portugal,Setubal,bgan,SETU,1.2,08:37,22',1',[open]
SSC-sevl,Sevilla,Spain,37.32,-6.01,sev2,,,,,,,[details],[edit],sev2,,Spain,Sevilla,ftp,,0.93,08:38,21',4',[open]
SSC-sewa,Seward,United States,60.12,-149.43,"sewa, sewa2",sewa,150.0,560,266,,2850,[details],[edit],sewa,150,USA,Seward,web,335FC376,2.71,08:51,8',6',[open]
SSC-sewa,Seward,United States,60.12,-149.43,"sewa, sewa2",sewa,150.0,560,266,,2850,[details],[edit],sewa2,150,USA,Seward,SXXX03,335FC376,-5.15,08:44,15',6',[open]
SSC-shee,Sheerness,United Kingdom,51.45,0.74,shee,,,,"3, 334","3263, 841","2187, 2748, 3262",[details],[edit],shee,,UK,Sheerness,ftp,,1.45,08:30,29',15',[open]
SSC-shen,Shenzhen,China,22.47,113.88,shen,shen,,,,,,[details],[edit],shen,,China,Shenzhen,SZCI01,09733,1.41,08:46,13',5',[open]
SSC-sian,Sian Ka'an,Mexico,19.31,-87.45,sian,,,,,,,[details],[edit],sian,,Mexico,Sian Ka'an,ftp,,2.99,2017-07-30 03:03,53d,15',[open]
SSC-sibo,Sibolga,Indonesia,1.73,98.8,"sib2, sibo","sib2, sibo",,122,"1752, 356",,,[details],[edit],sibo,,Indonesia,Sibolga,SZID46,0650BCD2,1.58,07:22,2h,6',[open]
SSC-sino,Sinop,Turkey,42.02,35.15,sino,,,,2017,,,[details],[edit],sino,,Turkey,Sinop,web,,1.35,08:42,17',2',[open]
SSC-sisa,Sisal,Mexico,21.16,-90.05,sisa,,,,,,,[details],[edit],sisa,,Mexico,Sisal,ftp,,2.04,2017-09-19 18:16,2d,15',[open]
SSC-sitk,Sitka,United States,57.05,-135.34,"sitk, sitk2",sitk,154.0,559,426,"2683, 2684",2682,[details],[edit],sitk,154,USA,Sitka,web,33625302,2.7,08:49,10',6',[open]
SSC-sitk,Sitka,United States,57.05,-135.34,"sitk, sitk2",sitk,154.0,559,426,"2683, 2684",2682,[details],[edit],sitk2,154,USA,Sitka,SXXX03,33625302,-4.16,08:48,11',6',[open]
SSC-sitt,Sittwe,Myanmar,20.15,92.9,sitt,sitt,37.0,907,421,,2805,[details],[edit],sitt,37,Myanmar,Sittwe,SZBM41,0650C490,2.82,08:49,10',6',[open]
SSC-smog,Smogen,Sweden,58.35,11.22,smog,,,818,"179, 97",2080,"2326, 2741",[details],[edit],smog,,Sweden,Smogen,ftp,,5.7,08:00,59',1h,[open]
SSC-sole,Solenzara,France,41.84,9.37,"sole, sole2",,,,2208,3210,3177,[details],[edit],sole,,France,Solenzara,ftp,,0.79,08:48,10',5',[open]
SSC-solo,Honiara,Solomon Islands,-9.43,159.96,solo,"honb, honi",66.0,9,"1373, 1667, 1861, 885",2054,"2133, 2772",[details],[edit],solo,66,Solomon Islands,Honiara,SZPS01,56670,4.4,08:53,6',3',[open]
SSC-sosu,Sosunovo,Russia,46.53,138.33,sosu,sosu,,,,,,[details],[edit],sosu,,Russia,Sosunovo,web,,2.4,08:44,15',10',[open]
SSC-sprg,Spring Bay,Australia,-42.55,147.93,sprg,sprg,56.0,335,"1216, 1220",2058,2116,[details],[edit],sprg,56,Australia,Spring Bay,SZAU01,61170,1.34,08:50,9',3',[open]
SSC-sscr,Second Severn Crossing,United Kingdom,51.57,-2.7,sscr,,,,,,,[details],[edit],sscr,,UK,Second Severn Crossing,web,,5.69,08:57,1',0.1666',[open]
SSC-stan,Stanley,United Kingdom,-51.75,-57.93,stan,stan,305.0,290,"1082, 1796",1870,2162,[details],[edit],stan,305,UK,Stanley,SXXX32,269375AE,0.01,2017-03-28 19:23,177d,15',[open]
SSC-stans,Stanley,Australia,-40.77,145.3,,,,,1144,,,[details],[edit],stan,305,UK,Stanley,SXXX32,269375AE,0.01,2017-03-28 19:23,177d,15',[open]
SSC-star,Starodubskoe,Russia,47.41,142.82,star,star,,,,,,[details],[edit],star,,Russia,Starodubskoe,web,,0.94,2016-06-22 12:44,456d,10',[open]
SSC-stdr,Santander,Spain,43.46,-3.79,san2,,,,"1051, 1807, 485",646,"2196, 2401, 2402",[details],[edit],san2,,Spain,Santander,ftp,,1.29,08:48,11',4',[open]
SSC-sthl,Saint Helena,Saint Helena,-15.92,-5.72,sthl,sthl,264.0,292,1845,2576,1986,[details],[edit],sthl,264,Saint-Helena,Saint Helena,SXXX32,26F364EA,5.15,08:36,23',15',[open]
SSC-sthm,Stockholm,Sweden,59.32,18.08,sthm,,341.0,826,"2131, 78",2084,2332,[details],[edit],sthm,341,Sweden,Stockholm,ftp,,7.06,07:57,1h,1h,[open]
SSC-stjo,St. Johns,Canada,47.57,-52.72,stjo,,223.0,276,393,"3434, 847",1989,[details],[edit],stjo,223,Canada,St. Johns,ftp,,0.59,04:03,5h,6h,[open]
SSC-stlu,Ganter's Bay,Saint Lucia,14.02,-61.0,stlu,stlu,,,,,,[details],[edit],stlu,,Saint Lucia,Ganter's Bay,SOLC10,6B00103C,0.65,08:51,8',5',[open]
SSC-stma,Saint-Malo,France,48.64,-2.03,"stma, stma2",stma,,,454,"1936, 3181","1866, 3419",[details],[edit],stma,,France,Saint-Malo,ftp,,9.87,08:47,11',5',[open]
SSC-stmr,St Marys,United Kingdom,49.92,-6.32,stmr,,,,1855,3257,3256,[details],[edit],stmr,,UK,St Marys,ftp,,3.05,08:30,29',15',[open]
SSC-stmt,Saint Martin Island,France,18.08,-63.09,stmt,stmt,,,,,,[details],[edit],stmt,,France,Saint Martin Island,SXMF40,12A01F32,0.75,08:51,8',5',[open]
SSC-stor,Stornoway,United Kingdom,58.2,-6.38,"stor, stor2",,238.0,295,314,1908,2189,[details],[edit],stor,238,UK,Stornoway,ftp,,4.66,08:30,29',15',[open]
SSC-sumt,Christchurch,New Zealand,-43.57,172.77,sumt,sumt,,667,"247, 259",922,"2335, 3222",[details],[edit],sumt,,New Zealand,Christchurch,SZNZ01,SUMT,0.33,2017-01-26 16:32,238d,3',[open]
SSC-sura,Surabaya,Indonesia,-7.22,112.73,sura,sura,292.0,160,"1599, 280",,2893,[details],[edit],sura,,Indonesia,Surabaya,SZID51,,1.33,08:45,14',15',[open]
SSC-suro,Sur,Oman,22.57,59.52,suro,suro,,,,,,[details],[edit],suro,,Oman,Sur,SXOM33,188263EC,-999,08:45,14',6',[open]
SSC-swpr,Swanage Pier,United Kingdom,50.61,-1.95,swpr,,,,,,,[details],[edit],swpr,,UK,Swanage Pier,web,,1.03,08:57,1',0.1666',[open]
SSC-syow,Syowa,Antarctica,-69.01,39.57,syow,,95.0,127,1396,850,2000,[details],[edit],syow,95,Antarctica,Syowa,web,,8.15,07:55,1h,1h,[open]
SSC-syro,Syros,Greece,37.44,24.94,syro,syro,,,1234,,,[details],[edit],syro,,Greece,Syros,ftp,,0.72,08:45,14',3',[open]
SSC-tala,Talara,Peru,-4.58,-81.28,tala,tala,,92,"2186, 475",,,[details],[edit],tala,,Perú,Talara,SEPO40,35414358,2.23,08:50,9',5',[open]
SSC-talc,Talcahuano,Chile,-36.7,-73.11,"talc, talc2",talc,,,571,"3013, 657",2606,[details],[edit],talc,,Chile,Talcahuano,SXCH40,ADC0C320,3.83,08:40,19',5',[open]
SSC-talc,Talcahuano,Chile,-36.7,-73.11,"talc, talc2",talc,,,571,"3013, 657",2606,[details],[edit],talc2,,Chile,Talcahuano,web,,3.76,08:56,2',5',[open]
SSC-talt,Taltal,Chile,-25.41,-70.49,"talt2, talt3",talt,,,,,,[details],[edit],talt2,,Chile,Taltal,web,,4.85,08:56,2',5',[open]
SSC-talt,Taltal,Chile,-25.41,-70.49,"talt2, talt3",talt,,,,,,[details],[edit],talt3,,Chile,Taltal,web,,5.4,2017-08-29 18:48,23d,5',[open]
SSC-tare,Tarekukure Wharf,Solomon Islands,-6.69,156.41,tare,tare,,,,,,[details],[edit],tare,,Solomon Islands,Tarekukure Wharf,SZPS01,56363,0.56,08:53,6',3',[open]
SSC-tari,Tarifa,Spain,36.01,-5.6,tari,,,,"2054, 488",3422,"3420, 3421",[details],[edit],tari,,Spain,Tarifa,ftp,,0.21,08:48,11',4',[open]
SSC-tarr,Tarragona,Spain,41.08,1.21,tarr,,,,2182,,,[details],[edit],tarr,,Spain,Tarragona,ftp,,0.41,08:48,11',4',[open]
SSC-taut,Port of Tauranga,New Zealand,-37.64,176.18,taut,taut,,73,"1590, 978",,,[details],[edit],taut,,New Zealand,Port of Tauranga,SZNZ01,TAUT,6.01,08:47,12',3',[open]
SSC-tdcu,Tristan da Cunha,United Kingdom,-37.05,-12.3,tdcu,tdca,266.0,,2164,,1990,[details],[edit],tdcu,266,UK,Tristan da Cunha,SXXX32,26BED7DE,1.75,2016-06-20 14:51,458d,15',[open]
SSC-tela,Tela Harbor,Honduras,15.78,-87.45,tela,tela,,,,,,[details],[edit],tela,,Honduras,Tela Harbor,SOHO10,50C45512,9.31,2016-12-12 15:00,283d,1h,[open]
SSC-telc,Telchac,Mexico,21.34,-89.31,telc,telc,,,2178,,,[details],[edit],telc,,Mexico,Telchac,ftp,,1.9,2017-09-19 18:05,2d,10',[open]
SSC-thev,Thevenard,Australia,-32.15,133.64,thev,thev,308.0,128,"1169, 386",649,2733,[details],[edit],thev,308,Australia,Thevenard,SZAU01,62000,0.69,08:50,9',3',[open]
SSC-thio,Thio,New Caledonia,-21.61,166.24,thio,thio,,,1538,3564,3563,[details],[edit],thio,,New Caledonia,Thio,SZNC44,xxxxxxx,1.49,08:48,11',6',[open]
SSC-toama,Toamasina,Madagascar,-18.16,49.43,toama,toam,,,,,,[details],[edit],toama,,Madagascar,Toamasina,SZIO03,FR041,0.75,08:19,40',15',[open]
SSC-tobe,Tobermory,United Kingdom,56.62,-6.06,tobe,,,,1491,,,[details],[edit],tobe,,UK,Tobermory,ftp,,3.89,08:30,29',15',[open]
SSC-tofi,Tofino,Canada,49.15,-125.91,"tfbc, tofi",tfbc,156.0,542,165,"2038, 866",2249,[details],[edit],tfbc,156,Canada,Tofino,SXAK50,15C3A33C,3.6,08:53,6',5',[open]
SSC-tort,Tortola,British Virgin Islands,18.42,-64.61,tort,tort,,,,,,[details],[edit],tort,,British Virgin Islands,Tortola,SOVI10,B110070A,-2.66,2017-09-06 16:43,15d,10',[open]
SSC-toul,Toulon,France,43.12,5.91,"toul, toul2",toul,,,980,,1852,[details],[edit],toul,,France,Toulon,ftp,,0.5,08:47,12',5',[open]
SSC-toya,Toyama,Japan,36.46,137.14,toya,toya,325.0,349,1389,802,2136,[details],[edit],toya,325,Japan,Toyama,SWJP40,TOYAMA,2.55,08:39,20',10',[open]
SSC-treg,Tregde,Norway,58.0,7.57,treg,,321.0,804,302,2036,2262,[details],[edit],treg,321,Norway,Tregde,web,,0.41,10:20,-81',1h,[open]
SSC-trin,Trinconmalee,Sri Lanka,8.56,81.2,trin,trna,,,,,,[details],[edit],trin,,Sri Lanka,Trinconmalee,SXXX33,322952D4,0.01,08:39,20',15',[open]
SSC-trnt,Taranto,Italy,40.48,17.22,TA18,,,,"103, 2095",,,[details],[edit],TA18,,Italy,Taranto,web,,-999,2017-08-19 20:17,33d,5',[open]
SSC-trst,Trieste,Italy,45.65,13.76,TR22,,340.0,829,"154, 2099","2042, 2596","2254, 2594, 2595, 3447",[details],[edit],TR22,,Italy,Trieste,web,,0.66,08:48,11',5',[open]
SSC-tuca,Grand Turk Island,Turks and Caicos Islands,21.43,71.15,tuca,tuca,,,,,,[details],[edit],tuca,,Turks & Caicos Islands,Grand Turk Island,SOTI10,C2D00462,6.13,2017-09-07 00:07,14d,5',[open]
SSC-tumc,Tumaco,Colombia,1.82,-78.73,"tumc, tumc2",tumc,171.0,303,639,2047,2394,[details],[edit],tumc,,Colombia,Tumaco,ftp,,3.12,2017-09-20 17:03,16h,5',[open]
SSC-tuxp,Tuxpan,Mexico,20.97,-97.4,tuxp,tuxp,,,918,,,[details],[edit],tuxp,,Mexico,Tuxpan,ftp,,2.19,2017-09-02 19:00,19d,10',[open]
SSC-ugle,Uglegorsk,Russia,49.08,142.07,ugle,ugle,,,1040,,,[details],[edit],ugle,,Russia,Uglegorsk,web,,1.5,2016-06-22 12:44,456d,10',[open]
SSC-ulla,Ullapool,United Kingdom,57.9,-5.16,ulla,,,,1112,3252,3251,[details],[edit],ulla,,UK,Ullapool,ftp,,5.17,08:30,29',15',[open]
SSC-ushu,Ushuaia,Argentina,-54.82,-68.22,ushu,ushu,181.0,600,"1271, 1850, 874",2506,"2225, 2759",[details],[edit],ushu,181,Argentina,Ushuaia,SEPO40,334CE50A,5.68,03:49,5h,15',[open]
SSC-vale,Valencia,Spain,39.44,-0.31,vale,vale,,,1813,872,2190,[details],[edit],vale,,Spain,Valencia,ftp,,0.21,08:48,11',4',[open]
SSC-valp,Valparaiso,Chile,-33.03,-71.63,"sho2, valp, valp2",valp,175.0,81,"1553, 1648, 499","3101, 873",2156,[details],[edit],valp,175,Chile,Valparaiso,SXCH40,35402444,2.81,08:48,11',5',[open]
SSC-valp,Valparaiso,Chile,-33.03,-71.63,"sho2, valp, valp2",valp,175.0,81,"1553, 1648, 499","3101, 873",2156,[details],[edit],valp2,175,Chile,Valparaiso,web,,2.74,08:54,5',5',[open]
SSC-vard,Vardø,Norway,70.33,31.1,vard,,323.0,805,"46, 524","3565, 875",2264,[details],[edit],vard,323,Norway,Vardø,web,,0.9,10:20,-81',1h,[open]
SSC-vati,"Vatia, Viti Levu",Fiji,-17.4,177.76,vati,vati,,,,,,[details],[edit],vati,,Fiji Islands,"Vatia, Viti Levu",SZFJ40,91000,1.72,08:48,11',6',[open]
SSC-veni,Venice,Italy,45.42,12.43,VE19,,,,"168, 2100, 218, 39, 87","2271, 3154, 876","2221, 2273, 2737, 2739",[details],[edit],VE19,,Italy,Venice,web,,0.75,08:47,12',5',[open]
SSC-vern,Vernadsky - Faraday,Antarctica,-65.25,-64.27,"ver1, vern",vern,188.0,700,913,2659,2658,[details],[edit],ver1,188,Antarctica,Vernadsky - Faraday,SEMS40,3354E632,1.55,08:39,20',15',[open]
SSC-vern,Vernadsky - Faraday,Antarctica,-65.25,-64.27,"ver1, vern",vern,188.0,700,913,2659,2658,[details],[edit],vern,188,Antarctica,Vernadsky - Faraday,SEMS40,3354E632,1.55,08:39,20',15',[open]
SSC-vibc,Victoria Harbor,Canada,48.42,-123.37,vibc,vibc,,,,,,[details],[edit],vibc,,Canada,Victoria Harbor,SXAK50,CD405D46,2.2,08:53,6',5',[open]
SSC-vieq,Vieques,United States,18.09,-65.47,"vieq, vieq2","vieq, viqu",,,,,,[details],[edit],vieq,,USA,Vieques,web,335CC478,0.34,2017-09-20 06:30,1d,6',[open]
SSC-vieq,Vieques,United States,18.09,-65.47,"vieq, vieq2","vieq, viqu",,,,,,[details],[edit],vieq2,,USA,Vieques,SXXX03,335CC478,-3.16,2017-09-20 06:29,1d,6',[open]
SSC-vies,Vieste,Italy,41.89,16.18,VI12,,,,2087,,,[details],[edit],VI12,,Italy,Vieste,web,,-0.18,08:53,6',5',[open]
SSC-vigo,Vigo,Spain,42.24,-8.73,vig2,,,208,"1898, 483",1928,"2194, 2398",[details],[edit],vig2,,Spain,Vigo,ftp,,0.5,08:48,11',4',[open]
SSC-vilg,Villagarcia,Spain,42.6,-8.77,vil2,,,,1897,,,[details],[edit],vil2,,Spain,Villagarcia,ftp,,0.62,08:48,11',4',[open]
SSC-vlad,Vladivostok,Russia,43.13,131.92,vlad,vlad,,,290,2630,2629,[details],[edit],vlad,,Russia,Vladivostok,web,,1.6,08:45,14',10',[open]
SSC-vlis,Vlissingen,Netherlands,51.44,3.6,vlis,,,,20,2240,2239,[details],[edit],vlis,,Netherlands,Vlissingen,web,,-1.77,08:30,29',10',[open]
SSC-vodo,Vodopadnaya,Russia,51.73,157.99,vodo,vodo,,,,,,[details],[edit],vodo,,Russia,Vodopadnaya,web,,1.31,2017-07-14 22:14,68d,10',[open]
SSC-vung,Vung Tau,Vietnam,10.34,107.07,vung,vtau,,383,1495,,,[details],[edit],vung,,Viet Nam,Vung Tau,SZVS41,06506ABA,4.39,08:50,9',6',[open]
SSC-waik,Waikelo,Indonesia,-9.39,119.22,waik,waik,346.0,418,,2931,2903,[details],[edit],waik,346,Indonesia,Waikelo,SXXX33,32A89288,1.47,08:45,14',15',[open]
SSC-waka,Wakkanai,Japan,45.42,141.68,waka,waka,324.0,360,1103,796,2106,[details],[edit],waka,324,Japan,Wakkanai,SWJP40,WAKKANAI,2.4,08:39,20',10',[open]
SSC-wall,Mata-Utu (Wallis island),France,-13.17,-176.1,wall,wall,,,383,,3472,[details],[edit],wall,,France,Mata-Utu (Wallis island),SZFW41,0652170C,0.62,2017-09-20 23:34,9h,6',[open]
SSC-warn,Warnemünde,Germany,54.17,12.1,warn,,,,"11, 53",880,2222,[details],[edit],warn,,Germany,Warnemünde,web,,5.21,08:52,7',5',[open]
SSC-wbhb,West Bay Harbour,United Kingdom,50.71,-2.76,wbhb,,,,,,,[details],[edit],wbhb,,UK,West Bay Harbour,web,,-0.08,2017-05-22 11:40,122d,0.1666',[open]
SSC-weym,Weymouth,United Kingdom,50.61,-2.45,weym,,,,"1773, 251",3261,3260,[details],[edit],weym,,UK,Weymouth,ftp,,2.33,08:30,29',15',[open]
SSC-whit,Whitby,United Kingdom,54.49,-0.61,whit,,,,1505,,,[details],[edit],whit,,UK,Whitby,ftp,,2.33,08:30,29',15',[open]
SSC-wint,Winter Harbour,Canada,50.51,-129.03,"whbc, wint",whbc,,,1799,697,2164,[details],[edit],whbc,,Canada,Winter Harbour,SXAK50,15C385D0,3.6,08:50,9',5',[open]
SSC-work,Workington,United Kingdom,54.65,-3.57,work,,,,1794,,,[details],[edit],work,,UK,Workington,ftp,,3.04,08:30,29',15',[open]
SSC-wuda,Khawr Wudam,Oman,23.82,57.52,wuda,wuda,,,,,,[details],[edit],wuda,,Oman,Khawr Wudam,SXOM33,18539268,0.14,08:46,13',6',[open]
SSC-yaku,Yakutat,United States,59.55,-139.74,"yaku, yaku2",yaku,,570,445,,,[details],[edit],yaku,,USA,Yakutat,web,3360E578,2.52,08:47,12',6',[open]
SSC-yaku,Yakutat,United States,59.55,-139.74,"yaku, yaku2",yaku,,570,445,,,[details],[edit],yaku2,,USA,Yakutat,SXXX03,3360E578,-6.87,08:46,13',6',[open]
SSC-yapi,Yap Island,Micronesia,9.51,138.12,yapi,yapi,119.0,8,"1251, 678",,2842,[details],[edit],yapi,119,Micronesia,Yap Island,SWPA41,065012F8,2.21,08:52,7',6',[open]
SSC-zanz,Zanzibar,Tanzania,-6.15,39.18,zanz,zanz,297.0,151,1600,2615,2614,[details],[edit],zanz,297,Tanzania,Zanzibar,SXXX33,1605D3E0,1.46,08:43,16',15',[open]
SSC-zhap,Zhapo,China,21.58,111.83,zhap,zhap,78.0,635,933,,2828,[details],[edit],zhap,78,China,Zhapo,SZCI01,09731,1.32,08:46,13',1',[open]
